[{"datasetid": "arrets-tao-gtfs", "recordid": "09ac8791171817b2f0b24062610749879857f6b1", "fields": {"stop_coordinates": [47.905524, 1.9098060000000001], "stop_name": "Halmagrand", "location_type": "1", "stop_id": "StopArea:OLS25_Halmagrand"}, "geometry": {"type": "Point", "coordinates": [1.9098060000000001, 47.905524]}, "record_timestamp": "2019-04-09T15:53:16.117+02:00"},{"datasetid": "arrets-tao-gtfs", "recordid": "6117c6a77b5867acfb0458594d3d49b86421446d", "fields": {"stop_coordinates": [47.821991, 1.9432939999999999], "stop_name": "Cuvier", "location_type": "1", "stop_id": "StopArea:OLS26_Cuvier"}, "geometry": {"type": "Point", "coordinates": [1.9432939999999999, 47.821991]}, "record_timestamp": "2019-04-09T15:53:16.117+02:00"},{"datasetid": "arrets-tao-gtfs", "recordid": "d0bd0c8dca2b2d12f75905d3181b67f3a4e3b1fb", "fields": {"stop_coordinates": [47.926479, 1.9196369999999998], "stop_name": "Parc de Lamballe", "location_type": "1", "stop_id": "StopArea:OLS21_Parc_de_Lamballe"}, "geometry": {"type": "Point", "coordinates": [1.9196369999999998, 47.926479]}, "record_timestamp": "2019-04-09T15:53:16.117+02:00"},{"datasetid": "arrets-tao-gtfs", "recordid": "8ce5e73db4e5d7cd7a5e8f82deb47e0307e2ff16", "fields": {"stop_coordinates": [47.938648, 1.930157], "stop_name": "Rameau", "location_type": "1", "stop_id": "StopArea:OLS21_Rameau"}, "geometry": {"type": "Point", "coordinates": [1.930157, 47.938648]}, "record_timestamp": "2019-04-09T15:53:16.117+02:00"},{"datasetid": "arrets-tao-gtfs", "recordid": "98a6ef5dd6ae7164846ec1f5e1a29f2eebb59b7d", "fields": {"stop_coordinates": [47.869174, 1.912815], "stop_name": "Z\u00e9nith-Parc Expo", "location_type": "1", "stop_id": "StopArea:OLS17_Zenith-Parc_Expo"}, "geometry": {"type": "Point", "coordinates": [1.912815, 47.869174]}, "record_timestamp": "2019-04-09T15:53:16.117+02:00"},{"datasetid": "arrets-tao-gtfs", "recordid": "183bab4be89e53f1d54a0f91e03b48f2387959e6", "fields": {"stop_coordinates": [47.879035, 1.9028559999999999], "stop_name": "Les Roseraies", "location_type": "1", "stop_id": "StopArea:OLS1_Les_Roseraies"}, "geometry": {"type": "Point", "coordinates": [1.9028559999999999, 47.879035]}, "record_timestamp": "2019-04-09T15:53:16.117+02:00"},{"datasetid": "arrets-tao-gtfs", "recordid": "77d348ff0fd3641685eccb120a87d1573e48eef5", "fields": {"stop_coordinates": [47.891491, 1.9097870000000001], "stop_name": "Michelet", "location_type": "1", "stop_id": "StopArea:OLS22_Michelet"}, "geometry": {"type": "Point", "coordinates": [1.9097870000000001, 47.891491]}, "record_timestamp": "2019-04-09T15:53:16.117+02:00"},{"datasetid": "arrets-tao-gtfs", "recordid": "315d3713628b2e72ba23a4d1c81613818a6bc91e", "fields": {"stop_coordinates": [47.877747, 1.9205079999999999], "stop_name": "Binoche", "location_type": "1", "stop_id": "StopArea:OLS22_Binoche"}, "geometry": {"type": "Point", "coordinates": [1.9205079999999999, 47.877747]}, "record_timestamp": "2019-04-09T15:53:16.117+02:00"},{"datasetid": "arrets-tao-gtfs", "recordid": "4daf8b0826290bce484de84446b6ddea9ae690a1", "fields": {"stop_coordinates": [47.969584, 1.9599900000000001], "stop_name": "Charmoise", "location_type": "1", "stop_id": "StopArea:OLS33_Charmoise"}, "geometry": {"type": "Point", "coordinates": [1.9599900000000001, 47.969584]}, "record_timestamp": "2019-04-09T15:53:16.117+02:00"},{"datasetid": "arrets-tao-gtfs", "recordid": "2ca2be4a83c73abe7d628c90ba1d0e30c78a098c", "fields": {"stop_coordinates": [47.943136, 1.944487], "stop_name": "H\u00f4pital Daumezon", "location_type": "1", "stop_id": "StopArea:OLS33_Hopital_Daumezon"}, "geometry": {"type": "Point", "coordinates": [1.944487, 47.943136]}, "record_timestamp": "2019-04-09T15:53:16.117+02:00"},{"datasetid": "arrets-tao-gtfs", "recordid": "3671f8486764409dc4add77fe719966aefa76efd", "fields": {"stop_coordinates": [47.905928, 1.9870169999999998], "stop_name": "B\u00e9dini\u00e8re", "location_type": "1", "stop_id": "StopArea:OLS15_Bediniere"}, "geometry": {"type": "Point", "coordinates": [1.9870169999999998, 47.905928]}, "record_timestamp": "2019-04-09T15:53:16.117+02:00"},{"datasetid": "arrets-tao-gtfs", "recordid": "5c53e8ebabb53a7270f74115573197fcc7f7b156", "fields": {"stop_coordinates": [47.905163, 2.011763], "stop_name": "L'Espardi\u00e8re", "location_type": "1", "stop_id": "StopArea:OLS34_L_Espardiere"}, "geometry": {"type": "Point", "coordinates": [2.011763, 47.905163]}, "record_timestamp": "2019-04-09T15:53:16.117+02:00"},{"datasetid": "arrets-tao-gtfs", "recordid": "55a5ba2b506d4e12ef6514850b09e93d4c99d67e", "fields": {"stop_coordinates": [47.936136, 1.827402], "stop_name": "Charmoy", "location_type": "1", "stop_id": "StopArea:OLS3_Charmoy"}, "geometry": {"type": "Point", "coordinates": [1.827402, 47.936136]}, "record_timestamp": "2019-04-09T15:53:16.117+02:00"},{"datasetid": "arrets-tao-gtfs", "recordid": "653d70fe3179a38e97d1c160ba9ebfac83b15abd", "fields": {"stop_coordinates": [47.92467, 1.845317], "stop_name": "Rousses", "location_type": "1", "stop_id": "StopArea:OLS19_Rousses"}, "geometry": {"type": "Point", "coordinates": [1.845317, 47.92467]}, "record_timestamp": "2019-04-09T15:53:16.117+02:00"},{"datasetid": "arrets-tao-gtfs", "recordid": "9484ba80300c62666e6fff2d89f3adda8093a7b6", "fields": {"stop_coordinates": [47.911709, 1.877416], "stop_name": "Anna Marly", "location_type": "1", "stop_id": "StopArea:OLS3_Anna_Marly"}, "geometry": {"type": "Point", "coordinates": [1.877416, 47.911709]}, "record_timestamp": "2019-04-09T15:53:16.117+02:00"},{"datasetid": "arrets-tao-gtfs", "recordid": "98f20e2c680ce656f78438caaa6ceba9b4897e79", "fields": {"stop_coordinates": [47.906525, 1.889382], "stop_name": "Chateaudun", "location_type": "1", "stop_id": "StopArea:OLS2_Chateaudun"}, "geometry": {"type": "Point", "coordinates": [1.889382, 47.906525]}, "record_timestamp": "2019-04-09T15:53:16.117+02:00"},{"datasetid": "arrets-tao-gtfs", "recordid": "c907f3349220f391e22b5a0f189354cd96119c63", "fields": {"stop_coordinates": [47.906029, 1.906549], "stop_name": "Gare Orl\u00e9ans M", "location_type": "1", "stop_id": "StopArea:OLS2_Gare_Orleans_M"}, "geometry": {"type": "Point", "coordinates": [1.906549, 47.906029]}, "record_timestamp": "2019-04-09T15:53:16.117+02:00"},{"datasetid": "arrets-tao-gtfs", "recordid": "c55ec854a034e77ba887102de4942cb1bbf57c34", "fields": {"stop_coordinates": [47.816344, 1.932656], "stop_name": "Fleming", "location_type": "1", "stop_id": "StopArea:OLS28_Fleming"}, "geometry": {"type": "Point", "coordinates": [1.932656, 47.816344]}, "record_timestamp": "2019-04-09T15:53:16.117+02:00"},{"datasetid": "arrets-tao-gtfs", "recordid": "7a29b127dee6a83bc681b990e5ba0c230bca896a", "fields": {"stop_coordinates": [47.831593, 1.928961], "stop_name": "Boli\u00e8re", "location_type": "1", "stop_id": "StopArea:OLS28_Boliere"}, "geometry": {"type": "Point", "coordinates": [1.928961, 47.831593]}, "record_timestamp": "2019-04-09T15:53:16.117+02:00"},{"datasetid": "arrets-tao-gtfs", "recordid": "4636f543891cadcef5155d73906a47988531e04d", "fields": {"stop_coordinates": [47.897341, 1.827743], "stop_name": "Croquech\u00e2taigne", "location_type": "1", "stop_id": "StopArea:OLS20_Croquechataigne"}, "geometry": {"type": "Point", "coordinates": [1.827743, 47.897341]}, "record_timestamp": "2019-04-09T15:53:16.117+02:00"},{"datasetid": "arrets-tao-gtfs", "recordid": "d082a337f63432c5cf89e45e27a74f8fa0a5997e", "fields": {"stop_coordinates": [47.860163, 1.9007839999999998], "stop_name": "Guynemer", "location_type": "1", "stop_id": "StopArea:OLS13_Guynemer"}, "geometry": {"type": "Point", "coordinates": [1.9007839999999998, 47.860163]}, "record_timestamp": "2019-04-09T15:53:16.117+02:00"},{"datasetid": "arrets-tao-gtfs", "recordid": "f2872db261f94aff687c8adb637c0be25fbceb05", "fields": {"stop_coordinates": [47.947144, 2.017697], "stop_name": "Trois Arches", "location_type": "1", "stop_id": "StopArea:OLS15_Trois_Arches"}, "geometry": {"type": "Point", "coordinates": [2.017697, 47.947144]}, "record_timestamp": "2019-04-09T15:53:16.117+02:00"},{"datasetid": "arrets-tao-gtfs", "recordid": "bd68e080753c7d3f926945085f4bed605354565a", "fields": {"stop_coordinates": [47.911791, 1.966721], "stop_name": "Clos de l'Arche", "location_type": "1", "stop_id": "StopArea:OLS12_Clos_de_l_Arche"}, "geometry": {"type": "Point", "coordinates": [1.966721, 47.911791]}, "record_timestamp": "2019-04-09T15:53:16.117+02:00"},{"datasetid": "arrets-tao-gtfs", "recordid": "4317a7eb607cb0fc6dc2118f78ae350bbc638a21", "fields": {"stop_coordinates": [47.919382, 1.983682], "stop_name": "Petit Cormier", "location_type": "1", "stop_id": "StopArea:OLS12_Petit_Cormier"}, "geometry": {"type": "Point", "coordinates": [1.983682, 47.919382]}, "record_timestamp": "2019-04-09T15:53:16.117+02:00"},{"datasetid": "arrets-tao-gtfs", "recordid": "1b4ea797cd0d444ad7eb9c65c015c9fdfe200a1a", "fields": {"stop_coordinates": [47.92494, 1.996008], "stop_name": "Route de Boigny", "location_type": "1", "stop_id": "StopArea:OLS12_Route_de_Boigny"}, "geometry": {"type": "Point", "coordinates": [1.996008, 47.92494]}, "record_timestamp": "2019-04-09T15:53:16.117+02:00"},{"datasetid": "arrets-tao-gtfs", "recordid": "9384936201fc97d2ece6cd549b8ea18f68edcc8f", "fields": {"stop_coordinates": [47.846488, 1.931962], "stop_name": "Universit\u00e9", "location_type": "1", "stop_id": "StopArea:OLS1_Universite"}, "geometry": {"type": "Point", "coordinates": [1.931962, 47.846488]}, "record_timestamp": "2019-04-09T15:53:16.117+02:00"},{"datasetid": "arrets-tao-gtfs", "recordid": "42599f59c90b2eb7ff1803edf950d3777adab9f9", "fields": {"stop_coordinates": [47.881497, 1.902854], "stop_name": "Moreau", "location_type": "1", "stop_id": "StopArea:OLS1_Moreau"}, "geometry": {"type": "Point", "coordinates": [1.902854, 47.881497]}, "record_timestamp": "2019-04-09T15:53:16.117+02:00"},{"datasetid": "arrets-tao-gtfs", "recordid": "e20d69e1c06af80820443572c4bcd5cd0aaee2ba", "fields": {"stop_coordinates": [47.933233, 1.888671], "stop_name": "Gascogne", "location_type": "1", "stop_id": "StopArea:OLS1_Gascogne"}, "geometry": {"type": "Point", "coordinates": [1.888671, 47.933233]}, "record_timestamp": "2019-04-09T15:53:16.117+02:00"},{"datasetid": "arrets-tao-gtfs", "recordid": "d838c63a7919b398d6583587ff568e230aebe046", "fields": {"stop_coordinates": [47.934796, 1.872439], "stop_name": "Anatole Faucheux", "location_type": "1", "stop_id": "StopArea:OLS19_Anatole_Faucheux"}, "geometry": {"type": "Point", "coordinates": [1.872439, 47.934796]}, "record_timestamp": "2019-04-09T15:53:16.117+02:00"},{"datasetid": "arrets-tao-gtfs", "recordid": "148369a50c4da48288af7e6400ed180414a1cf24", "fields": {"stop_coordinates": [47.907005, 1.958736], "stop_name": "Laurencin", "location_type": "1", "stop_id": "StopArea:OLS2_Laurencin"}, "geometry": {"type": "Point", "coordinates": [1.958736, 47.907005]}, "record_timestamp": "2019-04-09T15:53:16.117+02:00"},{"datasetid": "arrets-tao-gtfs", "recordid": "26a8431224f38323df70cda109a196efd2a2acbd", "fields": {"stop_coordinates": [47.906902, 1.905608], "stop_name": "Gare Orl\u00e9ans C", "location_type": "1", "stop_id": "StopArea:OLS18_Gare_Orleans_C"}, "geometry": {"type": "Point", "coordinates": [1.905608, 47.906902]}, "record_timestamp": "2019-04-09T15:53:16.117+02:00"},{"datasetid": "arrets-tao-gtfs", "recordid": "e2b9da46a43a86f784484cd52a2cffd4a1dd875a", "fields": {"stop_coordinates": [47.868136, 1.838185], "stop_name": "La Pie", "location_type": "1", "stop_id": "StopArea:OLS16_La_Pie"}, "geometry": {"type": "Point", "coordinates": [1.838185, 47.868136]}, "record_timestamp": "2019-04-09T15:53:16.117+02:00"},{"datasetid": "arrets-tao-gtfs", "recordid": "c2f05044baccb9ad24f1e1c3b4b3fa7367ef8eb3", "fields": {"stop_coordinates": [47.892629, 1.898984], "stop_name": "Jardin Plantes", "location_type": "1", "stop_id": "StopArea:OLS16_Jardin_Plantes"}, "geometry": {"type": "Point", "coordinates": [1.898984, 47.892629]}, "record_timestamp": "2019-04-09T15:53:16.117+02:00"},{"datasetid": "arrets-tao-gtfs", "recordid": "16792e418c005db0ad6a7667a7da69603a9a7d2e", "fields": {"stop_coordinates": [47.903021, 1.8508939999999998], "stop_name": "Dunant", "location_type": "1", "stop_id": "StopArea:OLS17_Dunant"}, "geometry": {"type": "Point", "coordinates": [1.8508939999999998, 47.903021]}, "record_timestamp": "2019-04-09T15:53:16.117+02:00"},{"datasetid": "arrets-tao-gtfs", "recordid": "8f15477d4ddc56523ae18e8630c9dfb2cd24cca8", "fields": {"stop_coordinates": [47.892792, 1.817622], "stop_name": "Cotteron", "location_type": "1", "stop_id": "StopArea:OLS35_Cotteron"}, "geometry": {"type": "Point", "coordinates": [1.817622, 47.892792]}, "record_timestamp": "2019-04-09T15:53:16.117+02:00"},{"datasetid": "arrets-tao-gtfs", "recordid": "5cca204e481f824bec75192cda3ba895c5d34d15", "fields": {"stop_coordinates": [47.913954, 1.810416], "stop_name": "Petits Souliers", "location_type": "1", "stop_id": "StopArea:OLS35_Petits_Souliers"}, "geometry": {"type": "Point", "coordinates": [1.810416, 47.913954]}, "record_timestamp": "2019-04-09T15:53:16.117+02:00"},{"datasetid": "arrets-tao-gtfs", "recordid": "64f276947a7e84500bb911fae305ef7443a28113", "fields": {"stop_coordinates": [47.907387, 1.905857], "stop_name": "Gare Orl\u00e9ans G", "location_type": "1", "stop_id": "StopArea:OLS5_Gare_Orleans_G"}, "geometry": {"type": "Point", "coordinates": [1.905857, 47.907387]}, "record_timestamp": "2019-04-09T15:53:16.117+02:00"},{"datasetid": "arrets-tao-gtfs", "recordid": "cb40ac418cd41dd5f036fa8659b6ba0f36b6e830", "fields": {"stop_coordinates": [47.899578, 1.9245], "stop_name": "Canal d'Orl\u00e9ans", "location_type": "1", "stop_id": "StopArea:OLSL_Canal_d_Orleans"}, "geometry": {"type": "Point", "coordinates": [1.9245, 47.899578]}, "record_timestamp": "2019-04-09T15:53:16.117+02:00"},{"datasetid": "arrets-tao-gtfs", "recordid": "d2b4114d1945fd0546cb124f773caf9b11996ff8", "fields": {"stop_coordinates": [47.898065, 1.911851], "stop_name": "Poterne", "location_type": "1", "stop_id": "StopArea:OLSL_Poterne"}, "geometry": {"type": "Point", "coordinates": [1.911851, 47.898065]}, "record_timestamp": "2019-04-09T15:53:16.117+02:00"},{"datasetid": "arrets-tao-gtfs", "recordid": "5ed079cb05a85e87261d4fe1ea8709662bdfb59f", "fields": {"stop_coordinates": [47.897933, 1.906007], "stop_name": "Les Halles", "location_type": "1", "stop_id": "StopArea:OLSL_Les_Halles"}, "geometry": {"type": "Point", "coordinates": [1.906007, 47.897933]}, "record_timestamp": "2019-04-09T15:53:16.117+02:00"},{"datasetid": "arrets-tao-gtfs", "recordid": "9310e5e8ba84526f211f132cfe9a9eea48539418", "fields": {"stop_coordinates": [47.910254, 1.945996], "stop_name": "Gaudier Brzeska", "location_type": "1", "stop_id": "StopArea:OLSB_Gaudier_Brzeska"}, "geometry": {"type": "Point", "coordinates": [1.945996, 47.910254]}, "record_timestamp": "2019-04-09T15:53:16.117+02:00"},{"datasetid": "arrets-tao-gtfs", "recordid": "d1a272c404ab51d2decd6d6f04644acd882e110e", "fields": {"stop_coordinates": [47.908066, 1.914257], "stop_name": "P. 1er de Serbie", "location_type": "1", "stop_id": "StopArea:OLS6_P__1er_de_Serbie"}, "geometry": {"type": "Point", "coordinates": [1.914257, 47.908066]}, "record_timestamp": "2019-04-09T15:53:16.117+02:00"},{"datasetid": "arrets-tao-gtfs", "recordid": "78a062afcf3af3633b503fa99388900a090246aa", "fields": {"stop_coordinates": [47.846394, 1.916951], "stop_name": "Les Aulnaies", "location_type": "1", "stop_id": "StopArea:OLSA_Les_Aulnaies"}, "geometry": {"type": "Point", "coordinates": [1.916951, 47.846394]}, "record_timestamp": "2019-04-09T15:53:16.117+02:00"},{"datasetid": "arrets-tao-gtfs", "recordid": "e36af85c5f24f2930d8621761fc1f7ac3c633171", "fields": {"stop_coordinates": [47.904322, 1.904386], "stop_name": "R\u00e9publique", "location_type": "1", "stop_id": "StopArea:OLSA_Republique"}, "geometry": {"type": "Point", "coordinates": [1.904386, 47.904322]}, "record_timestamp": "2019-04-09T15:53:16.117+02:00"},{"datasetid": "arrets-tao-gtfs", "recordid": "d30aacfc2b9661fd21e536bf93c87fb5a1e8b0c0", "fields": {"stop_coordinates": [47.924315, 1.879096], "stop_name": "Turquoises", "location_type": "1", "stop_id": "StopArea:OLS4_Turquoises"}, "geometry": {"type": "Point", "coordinates": [1.879096, 47.924315]}, "record_timestamp": "2019-04-09T15:53:16.117+02:00"},{"datasetid": "arrets-tao-gtfs", "recordid": "1d841c83b892d2ef57257dd0b4a7189cccb3cb04", "fields": {"stop_coordinates": [47.916373, 1.971682], "stop_name": "Vomimbert", "location_type": "1", "stop_id": "StopArea:OLS37_Vomimbert"}, "geometry": {"type": "Point", "coordinates": [1.971682, 47.916373]}, "record_timestamp": "2019-04-09T15:53:16.117+02:00"},{"datasetid": "arrets-tao-gtfs", "recordid": "6fe1be0b7427576b7b5f31725a4497a13cbcc569", "fields": {"stop_coordinates": [47.927044, 2.025532], "stop_name": "Stade Boigny", "location_type": "1", "stop_id": "StopArea:OLS62_Stade_Boigny"}, "geometry": {"type": "Point", "coordinates": [2.025532, 47.927044]}, "record_timestamp": "2019-04-09T15:53:16.117+02:00"},{"datasetid": "arrets-tao-gtfs", "recordid": "3290807ff76b2b7eef8cade66bdbfa1c961487da", "fields": {"stop_coordinates": [47.914726, 1.9053200000000001], "stop_name": "Vierzon", "parent_station": "StopArea:OLS25_Vierzon", "location_type": "0", "stop_id": "StopPoint:OLS00048302"}, "geometry": {"type": "Point", "coordinates": [1.9053200000000001, 47.914726]}, "record_timestamp": "2019-04-09T15:53:16.117+02:00"},{"datasetid": "arrets-tao-gtfs", "recordid": "ba248c05bf1f6032c5e7b6c1294e643e0ae59d01", "fields": {"stop_coordinates": [47.908588, 1.937573], "stop_name": "Ambert", "parent_station": "StopArea:OLS25_Ambert", "location_type": "0", "stop_id": "StopPoint:OLS00000703"}, "geometry": {"type": "Point", "coordinates": [1.937573, 47.908588]}, "record_timestamp": "2019-04-09T15:53:16.117+02:00"},{"datasetid": "arrets-tao-gtfs", "recordid": "e901e1d0427a10edb8c24b5c7e8f3d201f847712", "fields": {"stop_coordinates": [47.907146, 1.893279], "stop_name": "Dunois", "parent_station": "StopArea:OLS25_Dunois", "location_type": "0", "stop_id": "StopPoint:OLS00013850"}, "geometry": {"type": "Point", "coordinates": [1.893279, 47.907146]}, "record_timestamp": "2019-04-09T15:53:16.117+02:00"},{"datasetid": "arrets-tao-gtfs", "recordid": "6e795a512a876563d5ea77d5e09d75738d993bed", "fields": {"stop_coordinates": [47.902267, 1.8872939999999998], "stop_name": "Beaumonts-Baron", "parent_station": "StopArea:OLS25_Beaumonts-Baron", "location_type": "0", "stop_id": "StopPoint:OLS00002305"}, "geometry": {"type": "Point", "coordinates": [1.8872939999999998, 47.902267]}, "record_timestamp": "2019-04-09T15:53:16.117+02:00"},{"datasetid": "arrets-tao-gtfs", "recordid": "2083ec6c1ea1bcdc353836cb7cb8b9ffd4cfe65f", "fields": {"stop_coordinates": [47.809273, 1.9531489999999998], "stop_name": "Rond d'Eau", "parent_station": "StopArea:OLS26_Rond_d_Eau", "location_type": "0", "stop_id": "StopPoint:OLS00000007"}, "geometry": {"type": "Point", "coordinates": [1.9531489999999998, 47.809273]}, "record_timestamp": "2019-04-09T15:53:16.117+02:00"},{"datasetid": "arrets-tao-gtfs", "recordid": "314bc9e27a2d68701437029b477f94931e134c45", "fields": {"stop_coordinates": [47.843468, 1.907442], "stop_name": "Chemounettes", "parent_station": "StopArea:OLS13_Chemounettes", "location_type": "0", "stop_id": "StopPoint:OLS00007800"}, "geometry": {"type": "Point", "coordinates": [1.907442, 47.843468]}, "record_timestamp": "2019-04-09T15:53:16.117+02:00"},{"datasetid": "arrets-tao-gtfs", "recordid": "5b0104fa46c1f7e5b06440c33973b9938d03f3f4", "fields": {"stop_coordinates": [47.929844, 1.9268830000000001], "stop_name": "Condorcet", "parent_station": "StopArea:OLS21_Condorcet", "location_type": "0", "stop_id": "StopPoint:OLS00008640"}, "geometry": {"type": "Point", "coordinates": [1.9268830000000001, 47.929844]}, "record_timestamp": "2019-04-09T15:53:16.117+02:00"},{"datasetid": "arrets-tao-gtfs", "recordid": "8a3665a5a33802b460f479c7fbed9f9d67c0e3ee", "fields": {"stop_coordinates": [47.948601, 1.921506], "stop_name": "C. Militaire", "parent_station": "StopArea:OLS21_C__Militaire", "location_type": "0", "stop_id": "StopPoint:OLS00008501"}, "geometry": {"type": "Point", "coordinates": [1.921506, 47.948601]}, "record_timestamp": "2019-04-09T15:53:16.117+02:00"},{"datasetid": "arrets-tao-gtfs", "recordid": "57afbd960e9fc1323df622661036b16ff126f316", "fields": {"stop_coordinates": [47.94389, 1.920808], "stop_name": "Or\u00e9e de la For\u00eat", "parent_station": "StopArea:OLS21_Oree_de_la_Foret", "location_type": "0", "stop_id": "StopPoint:OLS01049804"}, "geometry": {"type": "Point", "coordinates": [1.920808, 47.94389]}, "record_timestamp": "2019-04-09T15:53:16.117+02:00"},{"datasetid": "arrets-tao-gtfs", "recordid": "e7d324dac4cb01d9b21f92872a323a71f01746f9", "fields": {"stop_coordinates": [47.889973, 1.915146], "stop_name": "Les Ballons", "parent_station": "StopArea:OLS22_Les_Ballons", "location_type": "0", "stop_id": "StopPoint:OLS00027702"}, "geometry": {"type": "Point", "coordinates": [1.915146, 47.889973]}, "record_timestamp": "2019-04-09T15:53:16.117+02:00"},{"datasetid": "arrets-tao-gtfs", "recordid": "cd0ae53acb49883fbc6fbe1dbe07a03b66200550", "fields": {"stop_coordinates": [47.877651, 1.920618], "stop_name": "Binoche", "parent_station": "StopArea:OLS22_Binoche", "location_type": "0", "stop_id": "StopPoint:OLS00023401"}, "geometry": {"type": "Point", "coordinates": [1.920618, 47.877651]}, "record_timestamp": "2019-04-09T15:53:16.117+02:00"},{"datasetid": "arrets-tao-gtfs", "recordid": "d8a08c326ba47ef15f3da96da9259cb5f3ac2181", "fields": {"stop_coordinates": [47.969479, 1.966317], "stop_name": "La Brossette", "parent_station": "StopArea:OLS33_La_Brossette", "location_type": "0", "stop_id": "StopPoint:OLS00004210"}, "geometry": {"type": "Point", "coordinates": [1.966317, 47.969479]}, "record_timestamp": "2019-04-09T15:53:16.117+02:00"},{"datasetid": "arrets-tao-gtfs", "recordid": "11ecec8df59eeaf970fccea6f0931ba934085c73", "fields": {"stop_coordinates": [47.907604, 1.980677], "stop_name": "Ste Marie", "parent_station": "StopArea:OLS15_Ste_Marie", "location_type": "0", "stop_id": "StopPoint:OLS00046103"}, "geometry": {"type": "Point", "coordinates": [1.980677, 47.907604]}, "record_timestamp": "2019-04-09T15:53:16.117+02:00"},{"datasetid": "arrets-tao-gtfs", "recordid": "2d8404a54a111da757d110521ecc674496d3865c", "fields": {"stop_coordinates": [47.924, 2.045077], "stop_name": "Petit Puits", "parent_station": "StopArea:OLS34_Petit_Puits", "location_type": "0", "stop_id": "StopPoint:OLS00037550"}, "geometry": {"type": "Point", "coordinates": [2.045077, 47.924]}, "record_timestamp": "2019-04-09T15:53:16.117+02:00"},{"datasetid": "arrets-tao-gtfs", "recordid": "ae83a73ece708cab4e69b8b2a2ffebcd2ffa9fb8", "fields": {"stop_coordinates": [47.91127, 2.018753], "stop_name": "Bourde", "parent_station": "StopArea:OLS34_Bourde", "location_type": "0", "stop_id": "StopPoint:OLS00023601"}, "geometry": {"type": "Point", "coordinates": [2.018753, 47.91127]}, "record_timestamp": "2019-04-09T15:53:16.117+02:00"},{"datasetid": "arrets-tao-gtfs", "recordid": "ea98884a3f51bb20f6aa789d4cb97917cc071f51", "fields": {"stop_coordinates": [47.912872, 1.874533], "stop_name": "Mairie SJRuelle", "parent_station": "StopArea:OLS3_Mairie_SJRuelle", "location_type": "0", "stop_id": "StopPoint:OLS00031721"}, "geometry": {"type": "Point", "coordinates": [1.874533, 47.912872]}, "record_timestamp": "2019-04-09T15:53:16.117+02:00"},{"datasetid": "arrets-tao-gtfs", "recordid": "361452e085393e62a95d87ac03b87dce3fbf7154", "fields": {"stop_coordinates": [47.916664, 1.9368569999999998], "stop_name": "Jean Rostand", "parent_station": "StopArea:OLS3_Jean_Rostand", "location_type": "0", "stop_id": "StopPoint:OLS01016604"}, "geometry": {"type": "Point", "coordinates": [1.9368569999999998, 47.916664]}, "record_timestamp": "2019-04-09T15:53:16.117+02:00"},{"datasetid": "arrets-tao-gtfs", "recordid": "653f8340f4a63aa5c718829b897c5e2da8064631", "fields": {"stop_coordinates": [47.9212, 1.853962], "stop_name": "Grand Orme", "parent_station": "StopArea:OLS3_Grand_Orme", "location_type": "0", "stop_id": "StopPoint:OLS00018300"}, "geometry": {"type": "Point", "coordinates": [1.853962, 47.9212]}, "record_timestamp": "2019-04-09T15:53:16.117+02:00"},{"datasetid": "arrets-tao-gtfs", "recordid": "18f894166be43a7b4a8da973be8786bc67afcb55", "fields": {"stop_coordinates": [47.901291, 1.859874], "stop_name": "Trois Fontaines", "parent_station": "StopArea:OLS16_Trois_Fontaines", "location_type": "0", "stop_id": "StopPoint:OLS00047046"}, "geometry": {"type": "Point", "coordinates": [1.859874, 47.901291]}, "record_timestamp": "2019-04-09T15:53:16.117+02:00"},{"datasetid": "arrets-tao-gtfs", "recordid": "524bbdfb7f819c2947f18758453598ef67c0c0e4", "fields": {"stop_coordinates": [47.866341, 1.893456], "stop_name": "Eglise St-Martin", "parent_station": "StopArea:OLS13_Eglise_St-Martin", "location_type": "0", "stop_id": "StopPoint:OLS01037003"}, "geometry": {"type": "Point", "coordinates": [1.893456, 47.866341]}, "record_timestamp": "2019-04-09T15:53:16.117+02:00"},{"datasetid": "arrets-tao-gtfs", "recordid": "40dedcfb93a7bad8e932f4abee0a923e90eadecf", "fields": {"stop_coordinates": [47.845051, 1.917163], "stop_name": "Les Aulnaies", "parent_station": "StopArea:OLS13_Les_Aulnaies", "location_type": "0", "stop_id": "StopPoint:OLS00027365"}, "geometry": {"type": "Point", "coordinates": [1.917163, 47.845051]}, "record_timestamp": "2019-04-09T15:53:16.117+02:00"},{"datasetid": "arrets-tao-gtfs", "recordid": "4d0fa35e43f730abf386042946679bcc4f786bdf", "fields": {"stop_coordinates": [47.843491, 1.923025], "stop_name": "IUT", "parent_station": "StopArea:OLS13_IUT", "location_type": "0", "stop_id": "StopPoint:OLS00021202"}, "geometry": {"type": "Point", "coordinates": [1.923025, 47.843491]}, "record_timestamp": "2019-04-09T15:53:16.117+02:00"},{"datasetid": "arrets-tao-gtfs", "recordid": "4bc29f2fda3a57b198a7cf363ab99938a8150fcf", "fields": {"stop_coordinates": [47.829456, 1.970647], "stop_name": "Clos du Bied", "parent_station": "StopArea:OLS13_Clos_du_Bied", "location_type": "0", "stop_id": "StopPoint:OLS00009000"}, "geometry": {"type": "Point", "coordinates": [1.970647, 47.829456]}, "record_timestamp": "2019-04-09T15:53:16.117+02:00"},{"datasetid": "arrets-tao-gtfs", "recordid": "2d627c33391fb2693fd11cd7156eb813768cf7d2", "fields": {"stop_coordinates": [47.91396, 1.97817], "stop_name": "Coubertin", "parent_station": "StopArea:OLS12_Coubertin", "location_type": "0", "stop_id": "StopPoint:OLS00051500"}, "geometry": {"type": "Point", "coordinates": [1.97817, 47.91396]}, "record_timestamp": "2019-04-09T15:53:16.117+02:00"},{"datasetid": "arrets-tao-gtfs", "recordid": "acec5fa134f3c0a183cdeb5acae77d607df45e3a", "fields": {"stop_coordinates": [47.899799, 2.01326], "stop_name": "L'Aquacienne", "parent_station": "StopArea:OLS15_L_Aquacienne", "location_type": "0", "stop_id": "StopPoint:OLS00035626"}, "geometry": {"type": "Point", "coordinates": [2.01326, 47.899799]}, "record_timestamp": "2019-04-09T15:53:16.117+02:00"},{"datasetid": "arrets-tao-gtfs", "recordid": "a77c4e42466317de59a998d69c210e43db0b28cd", "fields": {"stop_coordinates": [47.923992, 2.002054], "stop_name": "Maison Plate", "parent_station": "StopArea:OLS15_Maison_Plate", "location_type": "0", "stop_id": "StopPoint:OLS00052800"}, "geometry": {"type": "Point", "coordinates": [2.002054, 47.923992]}, "record_timestamp": "2019-04-09T15:53:16.117+02:00"},{"datasetid": "arrets-tao-gtfs", "recordid": "c7b41f63e758d0c8c9d6c60a0f667b54b25c8384", "fields": {"stop_coordinates": [47.901186, 2.027852], "stop_name": "Mend\u00e8s France", "parent_station": "StopArea:OLS15_Mendes_France", "location_type": "0", "stop_id": "StopPoint:OLS00033445"}, "geometry": {"type": "Point", "coordinates": [2.027852, 47.901186]}, "record_timestamp": "2019-04-09T15:53:16.117+02:00"},{"datasetid": "arrets-tao-gtfs", "recordid": "6011c40f22a911a052e0befad484b107beac14df", "fields": {"stop_coordinates": [47.961971, 2.023138], "stop_name": "Li\u00e8vre d'Or", "parent_station": "StopArea:OLS15_Lievre_d_Or", "location_type": "0", "stop_id": "StopPoint:OLS00056000"}, "geometry": {"type": "Point", "coordinates": [2.023138, 47.961971]}, "record_timestamp": "2019-04-09T15:53:16.117+02:00"},{"datasetid": "arrets-tao-gtfs", "recordid": "e2c7ae317009dc21da0b55cbba93d8dd33c45472", "fields": {"stop_coordinates": [47.950439, 2.023036], "stop_name": "Villevert", "parent_station": "StopArea:OLS15_Villevert", "location_type": "0", "stop_id": "StopPoint:OLS00055600"}, "geometry": {"type": "Point", "coordinates": [2.023036, 47.950439]}, "record_timestamp": "2019-04-09T15:53:16.117+02:00"},{"datasetid": "arrets-tao-gtfs", "recordid": "43b6ef4f39b402b8de8bf0f5f247bb895145f88a", "fields": {"stop_coordinates": [47.922165, 1.923857], "stop_name": "Barri\u00e8re St-Marc", "parent_station": "StopArea:OLS12_Barriere_St-Marc", "location_type": "0", "stop_id": "StopPoint:OLS00001810"}, "geometry": {"type": "Point", "coordinates": [1.923857, 47.922165]}, "record_timestamp": "2019-04-09T15:53:16.117+02:00"},{"datasetid": "arrets-tao-gtfs", "recordid": "ac34101de7b410322696d0a02816e17356c374af", "fields": {"stop_coordinates": [47.924061, 1.999905], "stop_name": "Maison Plate", "parent_station": "StopArea:OLS12_Maison_Plate", "location_type": "0", "stop_id": "StopPoint:OLS00052803"}, "geometry": {"type": "Point", "coordinates": [1.999905, 47.924061]}, "record_timestamp": "2019-04-09T15:53:16.117+02:00"},{"datasetid": "arrets-tao-gtfs", "recordid": "82729216e7a7a09dc3cdf514fd5b0c56c2d374a2", "fields": {"stop_coordinates": [47.919262, 1.983283], "stop_name": "Petit Cormier", "parent_station": "StopArea:OLS12_Petit_Cormier", "location_type": "0", "stop_id": "StopPoint:OLS00037350"}, "geometry": {"type": "Point", "coordinates": [1.983283, 47.919262]}, "record_timestamp": "2019-04-09T15:53:16.117+02:00"},{"datasetid": "arrets-tao-gtfs", "recordid": "dba57baebdba24cd14b86c48d66f63c89cc962c9", "fields": {"stop_coordinates": [47.917664, 1.946441], "stop_name": "Lumi\u00e8re", "parent_station": "StopArea:OLS12_Lumiere", "location_type": "0", "stop_id": "StopPoint:OLS00030902"}, "geometry": {"type": "Point", "coordinates": [1.946441, 47.917664]}, "record_timestamp": "2019-04-09T15:53:16.117+02:00"},{"datasetid": "arrets-tao-gtfs", "recordid": "9dcbd4aa569dee69aa90c63887400cd4a82cc27f", "fields": {"stop_coordinates": [47.922897, 1.94181], "stop_name": "Fosse B\u00e9nate", "parent_station": "StopArea:OLS12_Fosse_Benate", "location_type": "0", "stop_id": "StopPoint:OLS00016210"}, "geometry": {"type": "Point", "coordinates": [1.94181, 47.922897]}, "record_timestamp": "2019-04-09T15:53:16.117+02:00"},{"datasetid": "arrets-tao-gtfs", "recordid": "0af53aea623a8f7f2c06e42bd04e987b175e45f8", "fields": {"stop_coordinates": [47.89312, 1.895814], "stop_name": "Lab'O", "parent_station": "StopArea:OLS1_Lab_O", "location_type": "0", "stop_id": "StopPoint:OLS01007201"}, "geometry": {"type": "Point", "coordinates": [1.895814, 47.89312]}, "record_timestamp": "2019-04-09T15:53:16.117+02:00"},{"datasetid": "arrets-tao-gtfs", "recordid": "0908d690a4f02875427065c66fbef14cb9018594", "fields": {"stop_coordinates": [47.907673, 1.9015119999999999], "stop_name": "M\u00e9diath\u00e8que", "parent_station": "StopArea:OLS1_Mediatheque", "location_type": "0", "stop_id": "StopPoint:OLS00033421"}, "geometry": {"type": "Point", "coordinates": [1.9015119999999999, 47.907673]}, "record_timestamp": "2019-04-09T15:53:16.117+02:00"},{"datasetid": "arrets-tao-gtfs", "recordid": "c4f14a0c8992c4ff5ca5d9d06604cd9c1f983640", "fields": {"stop_coordinates": [47.934998, 1.876913], "stop_name": "Chimoutons", "parent_station": "StopArea:OLS1_Chimoutons", "location_type": "0", "stop_id": "StopPoint:OLS00008101"}, "geometry": {"type": "Point", "coordinates": [1.876913, 47.934998]}, "record_timestamp": "2019-04-09T15:53:16.117+02:00"},{"datasetid": "arrets-tao-gtfs", "recordid": "d1d34831400beec8e1811dfdc2b61558825e7d54", "fields": {"stop_coordinates": [47.846421, 1.93189], "stop_name": "Universit\u00e9", "parent_station": "StopArea:OLS1_Universite", "location_type": "0", "stop_id": "StopPoint:OLS00047320"}, "geometry": {"type": "Point", "coordinates": [1.93189, 47.846421]}, "record_timestamp": "2019-04-09T15:53:16.117+02:00"},{"datasetid": "arrets-tao-gtfs", "recordid": "66121f496e2dad79af55ef148da1ef527b3c3d87", "fields": {"stop_coordinates": [47.933975, 1.895486], "stop_name": "Dessaux", "parent_station": "StopArea:OLS11_Dessaux", "location_type": "0", "stop_id": "StopPoint:OLS00001046"}, "geometry": {"type": "Point", "coordinates": [1.895486, 47.933975]}, "record_timestamp": "2019-04-09T15:53:16.117+02:00"},{"datasetid": "arrets-tao-gtfs", "recordid": "d74cb8db194fda8dc033b25a9e36f3103dc11051", "fields": {"stop_coordinates": [47.953484, 1.902151], "stop_name": "L'Hopiteau", "parent_station": "StopArea:OLS19_L_Hopiteau", "location_type": "0", "stop_id": "StopPoint:OLS00023201"}, "geometry": {"type": "Point", "coordinates": [1.902151, 47.953484]}, "record_timestamp": "2019-04-09T15:53:16.117+02:00"},{"datasetid": "arrets-tao-gtfs", "recordid": "ac06b1c5bea63da51845feda8e0005a0b3347c0b", "fields": {"stop_coordinates": [47.932682, 1.864752], "stop_name": "Poiriers", "parent_station": "StopArea:OLS19_Poiriers", "location_type": "0", "stop_id": "StopPoint:OLS00039700"}, "geometry": {"type": "Point", "coordinates": [1.864752, 47.932682]}, "record_timestamp": "2019-04-09T15:53:16.117+02:00"},{"datasetid": "arrets-tao-gtfs", "recordid": "2e388f90d43ec904e6dd1ae78af6f72756934d66", "fields": {"stop_coordinates": [47.905754, 1.869104], "stop_name": "Salmoneries", "parent_station": "StopArea:OLS2_Salmoneries", "location_type": "0", "stop_id": "StopPoint:OLS00046251"}, "geometry": {"type": "Point", "coordinates": [1.869104, 47.905754]}, "record_timestamp": "2019-04-09T15:53:16.117+02:00"},{"datasetid": "arrets-tao-gtfs", "recordid": "92aaeb99336e0bab5f3ee9e888ae26ef252d1a99", "fields": {"stop_coordinates": [47.907822, 1.965186], "stop_name": "Libert\u00e9", "parent_station": "StopArea:OLS2_Liberte", "location_type": "0", "stop_id": "StopPoint:OLS00030301"}, "geometry": {"type": "Point", "coordinates": [1.965186, 47.907822]}, "record_timestamp": "2019-04-09T15:53:16.117+02:00"},{"datasetid": "arrets-tao-gtfs", "recordid": "16288ceae89e685c77af78eeea95ff5fd4be063f", "fields": {"stop_coordinates": [47.9021, 1.918901], "stop_name": "St Euverte", "parent_station": "StopArea:OLS2_St_Euverte", "location_type": "0", "stop_id": "StopPoint:OLS00045620"}, "geometry": {"type": "Point", "coordinates": [1.918901, 47.9021]}, "record_timestamp": "2019-04-09T15:53:16.117+02:00"},{"datasetid": "arrets-tao-gtfs", "recordid": "91788f9736c0ba539a6cffa0536887ed178f8ea5", "fields": {"stop_coordinates": [47.906921, 1.878582], "stop_name": "Petit Chasseur", "parent_station": "StopArea:OLS2_Petit_Chasseur", "location_type": "0", "stop_id": "StopPoint:OLS00037301"}, "geometry": {"type": "Point", "coordinates": [1.878582, 47.906921]}, "record_timestamp": "2019-04-09T15:53:16.117+02:00"},{"datasetid": "arrets-tao-gtfs", "recordid": "64f16209002b2ec4e6244dfd214d06daa15de42a", "fields": {"stop_coordinates": [47.891155, 1.8414220000000001], "stop_name": "Moulin-Bel Air", "parent_station": "StopArea:OLS2_Moulin-Bel_Air", "location_type": "0", "stop_id": "StopPoint:OLS00035000"}, "geometry": {"type": "Point", "coordinates": [1.8414220000000001, 47.891155]}, "record_timestamp": "2019-04-09T15:53:16.117+02:00"},{"datasetid": "arrets-tao-gtfs", "recordid": "684417c0ce22305bdbddedfff6d07c82b09669b7", "fields": {"stop_coordinates": [47.963985, 1.886794], "stop_name": "Fr\u00e8res Lumi\u00e8re", "parent_station": "StopArea:OLS18_Freres_Lumiere", "location_type": "0", "stop_id": "StopPoint:OLS00016601"}, "geometry": {"type": "Point", "coordinates": [1.886794, 47.963985]}, "record_timestamp": "2019-04-09T15:53:16.117+02:00"},{"datasetid": "arrets-tao-gtfs", "recordid": "412dac727456923e35e2e05d7271ae0347dc0c51", "fields": {"stop_coordinates": [47.916157, 1.894758], "stop_name": "Deux Ponts", "parent_station": "StopArea:OLS18_Deux_Ponts", "location_type": "0", "stop_id": "StopPoint:OLS00013101"}, "geometry": {"type": "Point", "coordinates": [1.894758, 47.916157]}, "record_timestamp": "2019-04-09T15:53:16.117+02:00"},{"datasetid": "arrets-tao-gtfs", "recordid": "8887d2cb699a927c5c86f519e0b854c4fbb9cc9b", "fields": {"stop_coordinates": [47.922318, 1.891409], "stop_name": "Jean Pelletier", "parent_station": "StopArea:OLS11_Jean_Pelletier", "location_type": "0", "stop_id": "StopPoint:OLS01017903"}, "geometry": {"type": "Point", "coordinates": [1.891409, 47.922318]}, "record_timestamp": "2019-04-09T15:53:16.117+02:00"},{"datasetid": "arrets-tao-gtfs", "recordid": "765424437d70ca126437c726623b55e5b6f5cb57", "fields": {"stop_coordinates": [47.92524, 1.889615], "stop_name": "Jacques Groslot", "parent_station": "StopArea:OLS18_Jacques_Groslot", "location_type": "0", "stop_id": "StopPoint:OLS00021811"}, "geometry": {"type": "Point", "coordinates": [1.889615, 47.92524]}, "record_timestamp": "2019-04-09T15:53:16.117+02:00"},{"datasetid": "arrets-tao-gtfs", "recordid": "36c0cd389b6607326ae45934d0c99673c92ab314", "fields": {"stop_coordinates": [47.927879, 1.8877609999999998], "stop_name": "Sitelles", "parent_station": "StopArea:OLS18_Sitelles", "location_type": "0", "stop_id": "StopPoint:OLS01045503"}, "geometry": {"type": "Point", "coordinates": [1.8877609999999998, 47.927879]}, "record_timestamp": "2019-04-09T15:53:16.117+02:00"},{"datasetid": "arrets-tao-gtfs", "recordid": "e224af8292b01102843b16a4813d7cc62b9a440d", "fields": {"stop_coordinates": [47.877708, 1.965372], "stop_name": "Brulas", "parent_station": "StopArea:OLS16_Brulas", "location_type": "0", "stop_id": "StopPoint:OLS01019506"}, "geometry": {"type": "Point", "coordinates": [1.965372, 47.877708]}, "record_timestamp": "2019-04-09T15:53:16.117+02:00"},{"datasetid": "arrets-tao-gtfs", "recordid": "d29e3b263733fde1a76d6ae61174e4fc4d2bfff1", "fields": {"stop_coordinates": [47.88813, 1.929023], "stop_name": "Montission", "parent_station": "StopArea:OLS16_Montission", "location_type": "0", "stop_id": "StopPoint:OLS00034320"}, "geometry": {"type": "Point", "coordinates": [1.929023, 47.88813]}, "record_timestamp": "2019-04-09T15:53:16.117+02:00"},{"datasetid": "arrets-tao-gtfs", "recordid": "fdc4057d5ca043df3e2c420afd26646034f87c43", "fields": {"stop_coordinates": [47.885803, 1.882512], "stop_name": "Petit Pont", "parent_station": "StopArea:OLS16_Petit_Pont", "location_type": "0", "stop_id": "StopPoint:OLS01042803"}, "geometry": {"type": "Point", "coordinates": [1.882512, 47.885803]}, "record_timestamp": "2019-04-09T15:53:16.117+02:00"},{"datasetid": "arrets-tao-gtfs", "recordid": "bc7578e053d5b5030383df95fe606769bb0630b9", "fields": {"stop_coordinates": [47.873402, 1.841394], "stop_name": "Saint-Nicolas", "parent_station": "StopArea:OLS16_Saint-Nicolas", "location_type": "0", "stop_id": "StopPoint:OLS00040600"}, "geometry": {"type": "Point", "coordinates": [1.841394, 47.873402]}, "record_timestamp": "2019-04-09T15:53:16.117+02:00"},{"datasetid": "arrets-tao-gtfs", "recordid": "99aad0d98540cb1c92b9ddecb7082af81d2f56f0", "fields": {"stop_coordinates": [47.897545, 1.8680620000000001], "stop_name": "Montespan", "parent_station": "StopArea:OLS17_Montespan", "location_type": "0", "stop_id": "StopPoint:OLS00034200"}, "geometry": {"type": "Point", "coordinates": [1.8680620000000001, 47.897545]}, "record_timestamp": "2019-04-09T15:53:16.117+02:00"},{"datasetid": "arrets-tao-gtfs", "recordid": "002a9539d50d85a4dbeb6ca39425d2ce2e043921", "fields": {"stop_coordinates": [47.896954, 1.865113], "stop_name": "Petite Esp\u00e8re", "parent_station": "StopArea:OLS17_Petite_Espere", "location_type": "0", "stop_id": "StopPoint:OLS00037701"}, "geometry": {"type": "Point", "coordinates": [1.865113, 47.896954]}, "record_timestamp": "2019-04-09T15:53:16.117+02:00"},{"datasetid": "arrets-tao-gtfs", "recordid": "d26bd9f37639b193c30a1d0a7444094ad0deacbc", "fields": {"stop_coordinates": [47.892841, 1.817656], "stop_name": "Cotteron", "parent_station": "StopArea:OLS35_Cotteron", "location_type": "0", "stop_id": "StopPoint:OLS01011703"}, "geometry": {"type": "Point", "coordinates": [1.817656, 47.892841]}, "record_timestamp": "2019-04-09T15:53:16.117+02:00"},{"datasetid": "arrets-tao-gtfs", "recordid": "bc9ae2828cea2fea1f117d10a60487d74df01b8f", "fields": {"stop_coordinates": [47.919853, 1.8147769999999999], "stop_name": "Bas du G\u00f4t", "parent_station": "StopArea:OLS35_Bas_du_Got", "location_type": "0", "stop_id": "StopPoint:OLS00053401"}, "geometry": {"type": "Point", "coordinates": [1.8147769999999999, 47.919853]}, "record_timestamp": "2019-04-09T15:53:16.117+02:00"},{"datasetid": "arrets-tao-gtfs", "recordid": "2ce762cec30ad60ec0fa56bd383dae3cae3845d8", "fields": {"stop_coordinates": [47.913898, 1.810429], "stop_name": "Petits Souliers", "parent_station": "StopArea:OLS35_Petits_Souliers", "location_type": "0", "stop_id": "StopPoint:OLS00037850"}, "geometry": {"type": "Point", "coordinates": [1.810429, 47.913898]}, "record_timestamp": "2019-04-09T15:53:16.117+02:00"},{"datasetid": "arrets-tao-gtfs", "recordid": "dbbacd3082be287058d4efd316c38a467cc6d6d0", "fields": {"stop_coordinates": [47.8885, 2.059286], "stop_name": "La Paix", "parent_station": "StopArea:OLS64_La_Paix", "location_type": "0", "stop_id": "StopPoint:OLS00024800"}, "geometry": {"type": "Point", "coordinates": [2.059286, 47.8885]}, "record_timestamp": "2019-04-09T15:53:16.117+02:00"},{"datasetid": "arrets-tao-gtfs", "recordid": "d79b5813d3b2cf0d66c528ea5f8e927104b2ee69", "fields": {"stop_coordinates": [47.821125, 1.93628], "stop_name": "Sapins", "parent_station": "StopArea:OLS7_Sapins", "location_type": "0", "stop_id": "StopPoint:OLS01077502"}, "geometry": {"type": "Point", "coordinates": [1.93628, 47.821125]}, "record_timestamp": "2019-04-09T15:53:16.117+02:00"},{"datasetid": "arrets-tao-gtfs", "recordid": "948e60997f92533488f4b3a373d6975177159ab8", "fields": {"stop_coordinates": [47.812996, 1.924861], "stop_name": "Petite M\u00e9rie", "parent_station": "StopArea:OLS61_Petite_Merie", "location_type": "0", "stop_id": "StopPoint:OLS00035910"}, "geometry": {"type": "Point", "coordinates": [1.924861, 47.812996]}, "record_timestamp": "2019-04-09T15:53:16.117+02:00"},{"datasetid": "arrets-tao-gtfs", "recordid": "739a7f3a3b9c40858cd2c0998c90dc92e8ed9ff4", "fields": {"stop_coordinates": [47.898209, 1.9152239999999998], "stop_name": "Saint-Aignan", "parent_station": "StopArea:OLSL_Saint-Aignan", "location_type": "0", "stop_id": "StopPoint:OLS00045600"}, "geometry": {"type": "Point", "coordinates": [1.9152239999999998, 47.898209]}, "record_timestamp": "2019-04-09T15:53:16.117+02:00"},{"datasetid": "arrets-tao-gtfs", "recordid": "5d172db0089e008c53f53799081e0bba80c560e8", "fields": {"stop_coordinates": [47.899574, 1.924586], "stop_name": "Canal d'Orl\u00e9ans", "parent_station": "StopArea:OLSL_Canal_d_Orleans", "location_type": "0", "stop_id": "StopPoint:OLS00005051"}, "geometry": {"type": "Point", "coordinates": [1.924586, 47.899574]}, "record_timestamp": "2019-04-09T15:53:16.117+02:00"},{"datasetid": "arrets-tao-gtfs", "recordid": "3ea0b2a40e42c8b6a808db4892276628dc611f47", "fields": {"stop_coordinates": [47.903587, 1.903058], "stop_name": "Martroi", "parent_station": "StopArea:OLSO_Martroi", "location_type": "0", "stop_id": "StopPoint:OLS00032906"}, "geometry": {"type": "Point", "coordinates": [1.903058, 47.903587]}, "record_timestamp": "2019-04-09T15:53:16.117+02:00"},{"datasetid": "arrets-tao-gtfs", "recordid": "97e6c77e77ed575bd74b6c4ba7572efa175d4d42", "fields": {"stop_coordinates": [47.899181, 1.876496], "stop_name": "Pont de L'Europe", "parent_station": "StopArea:OLSB_Pont_de_L_Europe", "location_type": "0", "stop_id": "StopPoint:OLSTPEURO1"}, "geometry": {"type": "Point", "coordinates": [1.876496, 47.899181]}, "record_timestamp": "2019-04-09T15:53:16.117+02:00"},{"datasetid": "arrets-tao-gtfs", "recordid": "f9688d35a9079a4e04cbc7fe2ef43ec40ae709c6", "fields": {"stop_coordinates": [47.932419, 1.9514619999999998], "stop_name": "Le Prieur\u00e9", "parent_station": "StopArea:OLS9_Le_Prieure", "location_type": "0", "stop_id": "StopPoint:OLSAF026951"}, "geometry": {"type": "Point", "coordinates": [1.9514619999999998, 47.932419]}, "record_timestamp": "2019-04-09T15:53:16.117+02:00"},{"datasetid": "arrets-tao-gtfs", "recordid": "99f6b73d1b179979ea8414e16f59f2e9cb66281b", "fields": {"stop_coordinates": [47.918503, 1.9176419999999998], "stop_name": "Croix Fleury", "parent_station": "StopArea:OLS6_Croix_Fleury", "location_type": "0", "stop_id": "StopPoint:OLS01027205"}, "geometry": {"type": "Point", "coordinates": [1.9176419999999998, 47.918503]}, "record_timestamp": "2019-04-09T15:53:16.117+02:00"},{"datasetid": "arrets-tao-gtfs", "recordid": "93ab2264f08c6e4d08ff4a7f78fb7f21471c4089", "fields": {"stop_coordinates": [47.831581, 1.92903], "stop_name": "Boli\u00e8re", "parent_station": "StopArea:OLSA_Boliere", "location_type": "0", "stop_id": "StopPoint:OLSTBOLIE1"}, "geometry": {"type": "Point", "coordinates": [1.92903, 47.831581]}, "record_timestamp": "2019-04-09T15:53:16.117+02:00"},{"datasetid": "arrets-tao-gtfs", "recordid": "b5232cee8d70df497c6ffd973cfb2dc2b7e70357", "fields": {"stop_coordinates": [47.906803, 1.9053239999999998], "stop_name": "Gare d'Orl\u00e9ans", "parent_station": "StopArea:OLSA_Gare_d_Orleans", "location_type": "0", "stop_id": "StopPoint:OLSTGARDO1"}, "geometry": {"type": "Point", "coordinates": [1.9053239999999998, 47.906803]}, "record_timestamp": "2019-04-09T15:53:16.117+02:00"},{"datasetid": "arrets-tao-gtfs", "recordid": "e4451eea9dc801a9f95612d1270611b1d5d01699", "fields": {"stop_coordinates": [47.911083, 1.9038689999999998], "stop_name": "Louis Braille", "parent_station": "StopArea:OLSA_Louis_Braille", "location_type": "0", "stop_id": "StopPoint:OLSTLBRAL2"}, "geometry": {"type": "Point", "coordinates": [1.9038689999999998, 47.911083]}, "record_timestamp": "2019-04-09T15:53:16.117+02:00"},{"datasetid": "arrets-tao-gtfs", "recordid": "eb734c69372fc756ce445bf7b63f6bb81c44d125", "fields": {"stop_coordinates": [47.901058, 1.902849], "stop_name": "De Gaulle", "parent_station": "StopArea:OLSA_De_Gaulle", "location_type": "0", "stop_id": "StopPoint:OLSTGAULA2"}, "geometry": {"type": "Point", "coordinates": [1.902849, 47.901058]}, "record_timestamp": "2019-04-09T15:53:16.117+02:00"},{"datasetid": "arrets-tao-gtfs", "recordid": "423618ec2e3136a0f7e22bbe38c2446592776c81", "fields": {"stop_coordinates": [47.898739, 1.9041549999999998], "stop_name": "Royale-Ch\u00e2telet", "parent_station": "StopArea:OLSA_Royale-Chatelet", "location_type": "0", "stop_id": "StopPoint:OLSTROYAL2"}, "geometry": {"type": "Point", "coordinates": [1.9041549999999998, 47.898739]}, "record_timestamp": "2019-04-09T15:53:16.117+02:00"},{"datasetid": "arrets-tao-gtfs", "recordid": "0c4e78dc72c38a62e1ebbbc39ccaffff1cf91f33", "fields": {"stop_coordinates": [47.845341, 1.936273], "stop_name": "Parc Floral", "parent_station": "StopArea:OLSA_Parc_Floral", "location_type": "0", "stop_id": "StopPoint:OLSTFLORA2"}, "geometry": {"type": "Point", "coordinates": [1.936273, 47.845341]}, "record_timestamp": "2019-04-09T15:53:16.117+02:00"},{"datasetid": "arrets-tao-gtfs", "recordid": "da0c330efb574a19a51a9d4ccd3d12cefc372a35", "fields": {"stop_coordinates": [47.92815, 1.919322], "stop_name": "Lamballe", "parent_station": "StopArea:OLSA_Lamballe", "location_type": "0", "stop_id": "StopPoint:OLSTLAMBA2"}, "geometry": {"type": "Point", "coordinates": [1.919322, 47.92815]}, "record_timestamp": "2019-04-09T15:53:16.117+02:00"},{"datasetid": "arrets-tao-gtfs", "recordid": "611d73c6c4804fa48d3320fb5241f3d7259df39d", "fields": {"stop_coordinates": [47.880562, 1.934011], "stop_name": "Saint-Denis", "parent_station": "StopArea:OLS5_Saint-Denis", "location_type": "0", "stop_id": "StopPoint:OLS00012001"}, "geometry": {"type": "Point", "coordinates": [1.934011, 47.880562]}, "record_timestamp": "2019-04-09T15:53:16.117+02:00"},{"datasetid": "arrets-tao-gtfs", "recordid": "50e3f6476b8654a0d3658c18f314d3ad7d3e7454", "fields": {"stop_coordinates": [47.877785, 1.963843], "stop_name": "Brulas", "parent_station": "StopArea:OLS5_Brulas", "location_type": "0", "stop_id": "StopPoint:OLS00004402"}, "geometry": {"type": "Point", "coordinates": [1.963843, 47.877785]}, "record_timestamp": "2019-04-09T15:53:16.117+02:00"},{"datasetid": "arrets-tao-gtfs", "recordid": "1897f5e12157500108039261ab1098f66c402943", "fields": {"stop_coordinates": [47.93309, 1.921395], "stop_name": "Picasso", "parent_station": "StopArea:OLS6_Picasso", "location_type": "0", "stop_id": "StopPoint:OLS00038000"}, "geometry": {"type": "Point", "coordinates": [1.921395, 47.93309]}, "record_timestamp": "2019-04-09T15:53:16.117+02:00"},{"datasetid": "arrets-tao-gtfs", "recordid": "b999391960ad243d9892a76ce3c7de5d4b3f9194", "fields": {"stop_coordinates": [47.915333, 1.8750149999999999], "stop_name": "Vieux Bourg", "parent_station": "StopArea:OLS4_Vieux_Bourg", "location_type": "0", "stop_id": "StopPoint:OLS00048403"}, "geometry": {"type": "Point", "coordinates": [1.8750149999999999, 47.915333]}, "record_timestamp": "2019-04-09T15:53:16.117+02:00"},{"datasetid": "arrets-tao-gtfs", "recordid": "6b5cb6d5298c79f189f83e1453b77c90973f57dd", "fields": {"stop_coordinates": [47.912281, 1.923414], "stop_name": "Droits de l'H.", "parent_station": "StopArea:OLS4_Droits_de_l_H_", "location_type": "0", "stop_id": "StopPoint:OLS00056202"}, "geometry": {"type": "Point", "coordinates": [1.923414, 47.912281]}, "record_timestamp": "2019-04-09T15:53:16.117+02:00"},{"datasetid": "arrets-tao-gtfs", "recordid": "2ddc0c67b81d716c1246ac70be4b7cdaf8555472", "fields": {"stop_coordinates": [47.943199, 1.9198279999999999], "stop_name": "Bicharderies", "parent_station": "StopArea:OLS4_Bicharderies", "location_type": "0", "stop_id": "StopPoint:OLS00027901"}, "geometry": {"type": "Point", "coordinates": [1.9198279999999999, 47.943199]}, "record_timestamp": "2019-04-09T15:53:16.117+02:00"},{"datasetid": "arrets-tao-gtfs", "recordid": "cd235467bd527c0ef79114d32aad8c6db2121abb", "fields": {"stop_coordinates": [47.910645, 1.869583], "stop_name": "Doumer", "parent_station": "StopArea:OLS4_Doumer", "location_type": "0", "stop_id": "StopPoint:OLS00013500"}, "geometry": {"type": "Point", "coordinates": [1.869583, 47.910645]}, "record_timestamp": "2019-04-09T15:53:16.117+02:00"},{"datasetid": "arrets-tao-gtfs", "recordid": "4850552c91cb40d8d724d01334ff7eb3a720da21", "fields": {"stop_coordinates": [47.886581, 1.834042], "stop_name": "Centre Sportif", "parent_station": "StopArea:OLS36_Centre_Sportif", "location_type": "0", "stop_id": "StopPoint:OLS01061302"}, "geometry": {"type": "Point", "coordinates": [1.834042, 47.886581]}, "record_timestamp": "2019-04-09T15:53:16.117+02:00"},{"datasetid": "arrets-tao-gtfs", "recordid": "4d97c8c2e1390e315b3f953bd382ffe50e8484da", "fields": {"stop_coordinates": [47.889442, 1.908521], "stop_name": "Alain Savary", "parent_station": "StopArea:OLS22_Alain_Savary", "location_type": "0", "stop_id": "StopPoint:OLS00000521"}, "geometry": {"type": "Point", "coordinates": [1.908521, 47.889442]}, "record_timestamp": "2019-04-09T15:53:16.117+02:00"},{"datasetid": "arrets-tao-gtfs", "recordid": "a637271e2b837462ec2f2ae544bfe1b262b538fc", "fields": {"stop_coordinates": [47.944221, 1.9282059999999999], "stop_name": "Les Foulons", "parent_station": "StopArea:OLS33_Les_Foulons", "location_type": "0", "stop_id": "StopPoint:OLS00028551"}, "geometry": {"type": "Point", "coordinates": [1.9282059999999999, 47.944221]}, "record_timestamp": "2019-04-09T15:53:16.117+02:00"},{"datasetid": "arrets-tao-gtfs", "recordid": "a958f83b1332c6db6f3bbf6e9ee893fd1a0cfd03", "fields": {"stop_coordinates": [47.942783, 1.920478], "stop_name": "Bicharderies", "parent_station": "StopArea:OLS33_Bicharderies", "location_type": "0", "stop_id": "StopPoint:OLS00027911"}, "geometry": {"type": "Point", "coordinates": [1.920478, 47.942783]}, "record_timestamp": "2019-04-09T15:53:16.117+02:00"},{"datasetid": "arrets-tao-gtfs", "recordid": "70e51f1591bff52913dd6a401236ced98b9c451e", "fields": {"stop_coordinates": [47.957642, 1.847713], "stop_name": "L'\u00c9pineux", "parent_station": "StopArea:OLS3_L_pineux", "location_type": "0", "stop_id": "StopPoint:OLS00022915"}, "geometry": {"type": "Point", "coordinates": [1.847713, 47.957642]}, "record_timestamp": "2019-04-09T15:53:16.117+02:00"},{"datasetid": "arrets-tao-gtfs", "recordid": "5b3bd24b26342d4976f0ac1188d2b8d184b920fc", "fields": {"stop_coordinates": [47.911648, 1.877541], "stop_name": "Anna Marly", "parent_station": "StopArea:OLS3_Anna_Marly", "location_type": "0", "stop_id": "StopPoint:OLS00010081"}, "geometry": {"type": "Point", "coordinates": [1.877541, 47.911648]}, "record_timestamp": "2019-04-09T15:53:16.117+02:00"},{"datasetid": "arrets-tao-gtfs", "recordid": "da454be9a9f1b436472ebdd8d3f3d139eb19affc", "fields": {"stop_coordinates": [47.917999, 1.9396529999999998], "stop_name": "M\u00e9d\u00e9a", "parent_station": "StopArea:OLS3_Medea", "location_type": "0", "stop_id": "StopPoint:OLS00033400"}, "geometry": {"type": "Point", "coordinates": [1.9396529999999998, 47.917999]}, "record_timestamp": "2019-04-09T15:53:16.117+02:00"},{"datasetid": "arrets-tao-gtfs", "recordid": "0c868797be887185e10e6c487ebc3b951f75de73", "fields": {"stop_coordinates": [47.924557, 1.8451689999999998], "stop_name": "Rousses", "parent_station": "StopArea:OLS19_Rousses", "location_type": "0", "stop_id": "StopPoint:OLS00051100"}, "geometry": {"type": "Point", "coordinates": [1.8451689999999998, 47.924557]}, "record_timestamp": "2019-04-09T15:53:16.117+02:00"},{"datasetid": "arrets-tao-gtfs", "recordid": "dd5dc479694ffd67c560a644f21f0b4f213654e0", "fields": {"stop_coordinates": [47.924831, 1.951019], "stop_name": "Champ Prieur", "parent_station": "StopArea:OLS27_Champ_Prieur", "location_type": "0", "stop_id": "StopPoint:OLS01063601"}, "geometry": {"type": "Point", "coordinates": [1.951019, 47.924831]}, "record_timestamp": "2019-04-09T15:53:16.117+02:00"},{"datasetid": "arrets-tao-gtfs", "recordid": "4596d5c12021a315f9945b7eeec781ef2983ea20", "fields": {"stop_coordinates": [47.924541, 1.947182], "stop_name": "L\u00e9onard de Vinci", "parent_station": "StopArea:OLS27_Leonard_de_Vinci", "location_type": "0", "stop_id": "StopPoint:OLS01063501"}, "geometry": {"type": "Point", "coordinates": [1.947182, 47.924541]}, "record_timestamp": "2019-04-09T15:53:16.117+02:00"},{"datasetid": "arrets-tao-gtfs", "recordid": "faed4352bf1cd1338880d1d5c926bd4f47e0c828", "fields": {"stop_coordinates": [47.823719, 1.9329969999999999], "stop_name": "Concyr", "parent_station": "StopArea:OLS28_Concyr", "location_type": "0", "stop_id": "StopPoint:OLS00010100"}, "geometry": {"type": "Point", "coordinates": [1.9329969999999999, 47.823719]}, "record_timestamp": "2019-04-09T15:53:16.117+02:00"},{"datasetid": "arrets-tao-gtfs", "recordid": "4c62cd34bf5508cfd6120602698bca4fe3441fa0", "fields": {"stop_coordinates": [47.822906, 1.931933], "stop_name": "Concyr", "parent_station": "StopArea:OLS28_Concyr", "location_type": "0", "stop_id": "StopPoint:OLS00010120"}, "geometry": {"type": "Point", "coordinates": [1.931933, 47.822906]}, "record_timestamp": "2019-04-09T15:53:16.117+02:00"},{"datasetid": "arrets-tao-gtfs", "recordid": "5daf14275ffed349627718ac5a642c56e22064a4", "fields": {"stop_coordinates": [47.821182, 1.930566], "stop_name": "Les Ombrages", "parent_station": "StopArea:OLS28_Les_Ombrages", "location_type": "0", "stop_id": "StopPoint:OLS00029300"}, "geometry": {"type": "Point", "coordinates": [1.930566, 47.821182]}, "record_timestamp": "2019-04-09T15:53:16.117+02:00"},{"datasetid": "arrets-tao-gtfs", "recordid": "290ae4e0180d721078c7a23e3308b6a13514e63f", "fields": {"stop_coordinates": [47.837017, 1.818022], "stop_name": "Quatre Routes", "parent_station": "StopArea:OLS13_Quatre_Routes", "location_type": "0", "stop_id": "StopPoint:OLS00000065"}, "geometry": {"type": "Point", "coordinates": [1.818022, 47.837017]}, "record_timestamp": "2019-04-09T15:53:16.117+02:00"},{"datasetid": "arrets-tao-gtfs", "recordid": "20ff7d4a325fc5fa4e8426414588f40e29624756", "fields": {"stop_coordinates": [47.865208, 1.8338619999999999], "stop_name": "Pl. du March\u00e9", "parent_station": "StopArea:OLS13_Pl__du_Marche", "location_type": "0", "stop_id": "StopPoint:OLS00038802"}, "geometry": {"type": "Point", "coordinates": [1.8338619999999999, 47.865208]}, "record_timestamp": "2019-04-09T15:53:16.117+02:00"},{"datasetid": "arrets-tao-gtfs", "recordid": "52dc69b4fc72ab75ce80ed952c77a09a1d10e655", "fields": {"stop_coordinates": [47.958275, 2.03338], "stop_name": "Maison Rouge", "parent_station": "StopArea:OLS15_Maison_Rouge", "location_type": "0", "stop_id": "StopPoint:OLS00056100"}, "geometry": {"type": "Point", "coordinates": [2.03338, 47.958275]}, "record_timestamp": "2019-04-09T15:53:16.117+02:00"},{"datasetid": "arrets-tao-gtfs", "recordid": "52d79017987a70eac45bc53afcb35fa559c49b58", "fields": {"stop_coordinates": [47.923714, 1.9369079999999999], "stop_name": "Clos N\u00e9cotin", "parent_station": "StopArea:OLS12_Clos_Necotin", "location_type": "0", "stop_id": "StopPoint:OLS00037871"}, "geometry": {"type": "Point", "coordinates": [1.9369079999999999, 47.923714]}, "record_timestamp": "2019-04-09T15:53:16.117+02:00"},{"datasetid": "arrets-tao-gtfs", "recordid": "8d631136856cc89546e270e0982876e69ee2fd56", "fields": {"stop_coordinates": [47.922523, 1.942155], "stop_name": "Fosse B\u00e9nate", "parent_station": "StopArea:OLS12_Fosse_Benate", "location_type": "0", "stop_id": "StopPoint:OLS00016211"}, "geometry": {"type": "Point", "coordinates": [1.942155, 47.922523]}, "record_timestamp": "2019-04-09T15:53:16.117+02:00"},{"datasetid": "arrets-tao-gtfs", "recordid": "7042686ea18df478b82dab45b79ac1ee76b5c443", "fields": {"stop_coordinates": [47.915051, 1.9639600000000002], "stop_name": "Coin Buffet", "parent_station": "StopArea:OLS12_Coin_Buffet", "location_type": "0", "stop_id": "StopPoint:OLS00009321"}, "geometry": {"type": "Point", "coordinates": [1.9639600000000002, 47.915051]}, "record_timestamp": "2019-04-09T15:53:16.117+02:00"},{"datasetid": "arrets-tao-gtfs", "recordid": "cb773ed620b916ca144696f73a07006b99d9ad98", "fields": {"stop_coordinates": [47.920868, 1.986735], "stop_name": "Grand Coquille", "parent_station": "StopArea:OLS12_Grand_Coquille", "location_type": "0", "stop_id": "StopPoint:OLS00054801"}, "geometry": {"type": "Point", "coordinates": [1.986735, 47.920868]}, "record_timestamp": "2019-04-09T15:53:16.117+02:00"},{"datasetid": "arrets-tao-gtfs", "recordid": "bfff90df879c6134512574a70f6b4e0fc5f81274", "fields": {"stop_coordinates": [47.935642, 2.004842], "stop_name": "Grand Bouland", "parent_station": "StopArea:OLS12_Grand_Bouland", "location_type": "0", "stop_id": "StopPoint:OLS00018126"}, "geometry": {"type": "Point", "coordinates": [2.004842, 47.935642]}, "record_timestamp": "2019-04-09T15:53:16.117+02:00"},{"datasetid": "arrets-tao-gtfs", "recordid": "ba482582057a2bbc074f111fa038a21dfdbb5687", "fields": {"stop_coordinates": [47.920254, 1.945027], "stop_name": "Jean Falaize", "parent_station": "StopArea:OLS12_Jean_Falaize", "location_type": "0", "stop_id": "StopPoint:OLS00022180"}, "geometry": {"type": "Point", "coordinates": [1.945027, 47.920254]}, "record_timestamp": "2019-04-09T15:53:16.117+02:00"},{"datasetid": "arrets-tao-gtfs", "recordid": "73539c6a45076130e0d359dba6d478ed9076ae3d", "fields": {"stop_coordinates": [47.92041, 1.914673], "stop_name": "Moine", "parent_station": "StopArea:OLS12_Moine", "location_type": "0", "stop_id": "StopPoint:OLS00033580"}, "geometry": {"type": "Point", "coordinates": [1.914673, 47.92041]}, "record_timestamp": "2019-04-09T15:53:16.117+02:00"},{"datasetid": "arrets-tao-gtfs", "recordid": "ea94c3e2227ba338c743d519e2cb03d3edb92740", "fields": {"stop_coordinates": [47.857456, 1.904164], "stop_name": "Victor Hugo", "parent_station": "StopArea:OLS1_Victor_Hugo", "location_type": "0", "stop_id": "StopPoint:OLS01000908"}, "geometry": {"type": "Point", "coordinates": [1.904164, 47.857456]}, "record_timestamp": "2019-04-09T15:53:16.117+02:00"},{"datasetid": "arrets-tao-gtfs", "recordid": "53df4834d7ac4bc43d6ffb5ac57ff5231e540f8b", "fields": {"stop_coordinates": [47.867714, 1.901884], "stop_name": "Pont Leclerc", "parent_station": "StopArea:OLS1_Pont_Leclerc", "location_type": "0", "stop_id": "StopPoint:OLS01006504"}, "geometry": {"type": "Point", "coordinates": [1.901884, 47.867714]}, "record_timestamp": "2019-04-09T15:53:16.117+02:00"},{"datasetid": "arrets-tao-gtfs", "recordid": "2d4a19b31e59a9999d4f38ed8f22f30ce563fa00", "fields": {"stop_coordinates": [47.912857, 1.899911], "stop_name": "Coulmiers", "parent_station": "StopArea:OLS1_Coulmiers", "location_type": "0", "stop_id": "StopPoint:OLS00011101"}, "geometry": {"type": "Point", "coordinates": [1.899911, 47.912857]}, "record_timestamp": "2019-04-09T15:53:16.117+02:00"},{"datasetid": "arrets-tao-gtfs", "recordid": "b79d95b252912f35308f6c255520aec5c1aab7ec", "fields": {"stop_coordinates": [47.828297, 1.919372], "stop_name": "Lim\u00e8re", "parent_station": "StopArea:OLS1_Limere", "location_type": "0", "stop_id": "StopPoint:OLS01068801"}, "geometry": {"type": "Point", "coordinates": [1.919372, 47.828297]}, "record_timestamp": "2019-04-09T15:53:16.117+02:00"},{"datasetid": "arrets-tao-gtfs", "recordid": "e4f7f523e04882caedffc27e709630f809958065", "fields": {"stop_coordinates": [47.950294, 1.8750589999999998], "stop_name": "Mairie Saran", "parent_station": "StopArea:OLS11_Mairie_Saran", "location_type": "0", "stop_id": "StopPoint:OLS00031300"}, "geometry": {"type": "Point", "coordinates": [1.8750589999999998, 47.950294]}, "record_timestamp": "2019-04-09T15:53:16.117+02:00"},{"datasetid": "arrets-tao-gtfs", "recordid": "e2687b5c5fd54ddd5c2ba15987e282d869d55597", "fields": {"stop_coordinates": [47.932053, 1.889736], "stop_name": "Georges Brassens", "parent_station": "StopArea:OLS1_Georges_Brassens", "location_type": "0", "stop_id": "StopPoint:OLS00016701"}, "geometry": {"type": "Point", "coordinates": [1.889736, 47.932053]}, "record_timestamp": "2019-04-09T15:53:16.117+02:00"},{"datasetid": "arrets-tao-gtfs", "recordid": "c4d840bc5a91f8d52c3644dc51f53d5a48ff60cf", "fields": {"stop_coordinates": [47.929066, 1.895899], "stop_name": "Chapelle Neuve", "parent_station": "StopArea:OLS1_Chapelle_Neuve", "location_type": "0", "stop_id": "StopPoint:OLS00006701"}, "geometry": {"type": "Point", "coordinates": [1.895899, 47.929066]}, "record_timestamp": "2019-04-09T15:53:16.117+02:00"},{"datasetid": "arrets-tao-gtfs", "recordid": "90ef285a9f77b80cea0ff7829c3ad102e32a0958", "fields": {"stop_coordinates": [47.912868, 1.899907], "stop_name": "Coulmiers", "parent_station": "StopArea:OLS1_Coulmiers", "location_type": "0", "stop_id": "StopPoint:OLS00011100"}, "geometry": {"type": "Point", "coordinates": [1.899907, 47.912868]}, "record_timestamp": "2019-04-09T15:53:16.117+02:00"},{"datasetid": "arrets-tao-gtfs", "recordid": "f68727bddc9a8f8c6c547343f17b2c5d42d890b8", "fields": {"stop_coordinates": [47.893135, 1.8957100000000002], "stop_name": "Lab'O", "parent_station": "StopArea:OLS1_Lab_O", "location_type": "0", "stop_id": "StopPoint:OLS01007202"}, "geometry": {"type": "Point", "coordinates": [1.8957100000000002, 47.893135]}, "record_timestamp": "2019-04-09T15:53:16.117+02:00"},{"datasetid": "arrets-tao-gtfs", "recordid": "493509d08bedba75696fbe41a19a239f1a87d79d", "fields": {"stop_coordinates": [47.861851, 1.8988649999999998], "stop_name": "Les Fleurs", "parent_station": "StopArea:OLS1_Les_Fleurs", "location_type": "0", "stop_id": "StopPoint:OLS00028401"}, "geometry": {"type": "Point", "coordinates": [1.8988649999999998, 47.861851]}, "record_timestamp": "2019-04-09T15:53:16.117+02:00"},{"datasetid": "arrets-tao-gtfs", "recordid": "e940c3cdefc08bd6660885725579623803d2a581", "fields": {"stop_coordinates": [47.94389, 1.835601], "stop_name": "Monbary", "parent_station": "StopArea:OLS11_Monbary", "location_type": "0", "stop_id": "StopPoint:OLS00033700"}, "geometry": {"type": "Point", "coordinates": [1.835601, 47.94389]}, "record_timestamp": "2019-04-09T15:53:16.117+02:00"},{"datasetid": "arrets-tao-gtfs", "recordid": "e36451594a6fd565dc1800c5aad50986cef87573", "fields": {"stop_coordinates": [47.931049, 1.858361], "stop_name": "Les Toits", "parent_station": "StopArea:OLS19_Les_Toits", "location_type": "0", "stop_id": "StopPoint:OLS00029901"}, "geometry": {"type": "Point", "coordinates": [1.858361, 47.931049]}, "record_timestamp": "2019-04-09T15:53:16.117+02:00"},{"datasetid": "arrets-tao-gtfs", "recordid": "8ce7ee1f111c61bf7a94239fd8ddc8f6534a4b2e", "fields": {"stop_coordinates": [47.887859, 1.8323779999999998], "stop_name": "Gabelli\u00e8re", "parent_station": "StopArea:OLS2_Gabelliere", "location_type": "0", "stop_id": "StopPoint:OLS00024201"}, "geometry": {"type": "Point", "coordinates": [1.8323779999999998, 47.887859]}, "record_timestamp": "2019-04-09T15:53:16.117+02:00"},{"datasetid": "arrets-tao-gtfs", "recordid": "058d69c37729cd1eeb9cded668a42efae9b3ebec", "fields": {"stop_coordinates": [47.906273, 1.874639], "stop_name": "Champs Frais", "parent_station": "StopArea:OLS2_Champs_Frais", "location_type": "0", "stop_id": "StopPoint:OLS00006403"}, "geometry": {"type": "Point", "coordinates": [1.874639, 47.906273]}, "record_timestamp": "2019-04-09T15:53:16.117+02:00"},{"datasetid": "arrets-tao-gtfs", "recordid": "e9868bf5f9b03999e813a0ef083870fcb2fea92d", "fields": {"stop_coordinates": [47.901524, 1.9225970000000001], "stop_name": "Lavedan", "parent_station": "StopArea:OLS2_Lavedan", "location_type": "0", "stop_id": "StopPoint:OLS01013604"}, "geometry": {"type": "Point", "coordinates": [1.9225970000000001, 47.901524]}, "record_timestamp": "2019-04-09T15:53:16.117+02:00"},{"datasetid": "arrets-tao-gtfs", "recordid": "8782e8467e4627e3396a1f5991e88d55a2090b41", "fields": {"stop_coordinates": [47.905952, 1.8693309999999999], "stop_name": "Salmoneries", "parent_station": "StopArea:OLS2_Salmoneries", "location_type": "0", "stop_id": "StopPoint:OLS00046250"}, "geometry": {"type": "Point", "coordinates": [1.8693309999999999, 47.905952]}, "record_timestamp": "2019-04-09T15:53:16.117+02:00"},{"datasetid": "arrets-tao-gtfs", "recordid": "cf8b9e173b249a4769fdd95a72f75d53f5dcb726", "fields": {"stop_coordinates": [47.889149, 1.835885], "stop_name": "Tilleuls", "parent_station": "StopArea:OLS2_Tilleuls", "location_type": "0", "stop_id": "StopPoint:OLS00029801"}, "geometry": {"type": "Point", "coordinates": [1.835885, 47.889149]}, "record_timestamp": "2019-04-09T15:53:16.117+02:00"},{"datasetid": "arrets-tao-gtfs", "recordid": "6d1b9b55fb984539fbb4dd65ea4b3b3c2a972bb7", "fields": {"stop_coordinates": [47.927742, 1.887843], "stop_name": "Sitelles", "parent_station": "StopArea:OLS18_Sitelles", "location_type": "0", "stop_id": "StopPoint:OLS01045504"}, "geometry": {"type": "Point", "coordinates": [1.887843, 47.927742]}, "record_timestamp": "2019-04-09T15:53:16.117+02:00"},{"datasetid": "arrets-tao-gtfs", "recordid": "72264c81521d64245617de38d04f68c69f1287f9", "fields": {"stop_coordinates": [47.953033, 1.884115], "stop_name": "Grands Champs", "parent_station": "StopArea:OLS18_Grands_Champs", "location_type": "0", "stop_id": "StopPoint:OLS00018500"}, "geometry": {"type": "Point", "coordinates": [1.884115, 47.953033]}, "record_timestamp": "2019-04-09T15:53:16.117+02:00"},{"datasetid": "arrets-tao-gtfs", "recordid": "ce2d4e0c72e7bd273ddf441e85764af820f88c86", "fields": {"stop_coordinates": [47.885719, 1.882096], "stop_name": "Petit Pont", "parent_station": "StopArea:OLS16_Petit_Pont", "location_type": "0", "stop_id": "StopPoint:OLS00037401"}, "geometry": {"type": "Point", "coordinates": [1.882096, 47.885719]}, "record_timestamp": "2019-04-09T15:53:16.117+02:00"},{"datasetid": "arrets-tao-gtfs", "recordid": "fdce9bad0825f12169e5bb14486ef51d361f39f9", "fields": {"stop_coordinates": [47.885696, 1.9387349999999999], "stop_name": "La Brette", "parent_station": "StopArea:OLS16_La_Brette", "location_type": "0", "stop_id": "StopPoint:OLS00023700"}, "geometry": {"type": "Point", "coordinates": [1.9387349999999999, 47.885696]}, "record_timestamp": "2019-04-09T15:53:16.117+02:00"},{"datasetid": "arrets-tao-gtfs", "recordid": "772905163fd7a1bf6dbfe65c92de9a502def78a5", "fields": {"stop_coordinates": [47.876598, 1.968785], "stop_name": "Vrigny", "parent_station": "StopArea:OLS16_Vrigny", "location_type": "0", "stop_id": "StopPoint:OLS00049040"}, "geometry": {"type": "Point", "coordinates": [1.968785, 47.876598]}, "record_timestamp": "2019-04-09T15:53:16.117+02:00"},{"datasetid": "arrets-tao-gtfs", "recordid": "e9e118565d439a15bb8eb0bbd18c1df4ef37c82b", "fields": {"stop_coordinates": [47.882141, 1.9514719999999999], "stop_name": "Chalet", "parent_station": "StopArea:OLS16_Chalet", "location_type": "0", "stop_id": "StopPoint:OLS00006000"}, "geometry": {"type": "Point", "coordinates": [1.9514719999999999, 47.882141]}, "record_timestamp": "2019-04-09T15:53:16.117+02:00"},{"datasetid": "arrets-tao-gtfs", "recordid": "d7ace1e719d596d3f53a2acd6bfb4b5296868132", "fields": {"stop_coordinates": [47.883099, 1.938856], "stop_name": "Jacques Pr\u00e9vert", "parent_station": "StopArea:OLS16_Jacques_Prevert", "location_type": "0", "stop_id": "StopPoint:OLS01041504"}, "geometry": {"type": "Point", "coordinates": [1.938856, 47.883099]}, "record_timestamp": "2019-04-09T15:53:16.117+02:00"},{"datasetid": "arrets-tao-gtfs", "recordid": "0d2ad77f82c4a90e087d94e8b759dd931cb39607", "fields": {"stop_coordinates": [47.875969, 1.871735], "stop_name": "Loup Pendu", "parent_station": "StopArea:OLS17_Loup_Pendu", "location_type": "0", "stop_id": "StopPoint:OLS00030802"}, "geometry": {"type": "Point", "coordinates": [1.871735, 47.875969]}, "record_timestamp": "2019-04-09T15:53:16.117+02:00"},{"datasetid": "arrets-tao-gtfs", "recordid": "ab98b6bd7a45d7ae10647b09ca2b8b50f3cc838e", "fields": {"stop_coordinates": [47.896275, 1.861483], "stop_name": "Mar\u00e9chal Leclerc", "parent_station": "StopArea:OLS17_Marechal_Leclerc", "location_type": "0", "stop_id": "StopPoint:OLS01019204"}, "geometry": {"type": "Point", "coordinates": [1.861483, 47.896275]}, "record_timestamp": "2019-04-09T15:53:16.117+02:00"},{"datasetid": "arrets-tao-gtfs", "recordid": "244b76789e9c3f71563465deb09c0c3426da15c4", "fields": {"stop_coordinates": [47.903042, 1.850952], "stop_name": "Dunant", "parent_station": "StopArea:OLS17_Dunant", "location_type": "0", "stop_id": "StopPoint:OLS00013820"}, "geometry": {"type": "Point", "coordinates": [1.850952, 47.903042]}, "record_timestamp": "2019-04-09T15:53:16.117+02:00"},{"datasetid": "arrets-tao-gtfs", "recordid": "573191d6f9f452953788fe2ac460ae839359cfd3", "fields": {"stop_coordinates": [47.901531, 1.8533279999999999], "stop_name": "Pierre Curie", "parent_station": "StopArea:OLS17_Pierre_Curie", "location_type": "0", "stop_id": "StopPoint:OLS00038302"}, "geometry": {"type": "Point", "coordinates": [1.8533279999999999, 47.901531]}, "record_timestamp": "2019-04-09T15:53:16.117+02:00"},{"datasetid": "arrets-tao-gtfs", "recordid": "c5290a6cec92be4f1e150f2ebbd6c5c345ec74f2", "fields": {"stop_coordinates": [47.86972, 1.898027], "stop_name": "Violettes", "parent_station": "StopArea:OLS17_Violettes", "location_type": "0", "stop_id": "StopPoint:OLS00052600"}, "geometry": {"type": "Point", "coordinates": [1.898027, 47.86972]}, "record_timestamp": "2019-04-09T15:53:16.117+02:00"},{"datasetid": "arrets-tao-gtfs", "recordid": "07904e2bf5468f4f50568aecff53e59128ea27f5", "fields": {"stop_coordinates": [47.901703, 1.805437], "stop_name": "La Bonde", "parent_station": "StopArea:OLS35_La_Bonde", "location_type": "0", "stop_id": "StopPoint:OLS00044125"}, "geometry": {"type": "Point", "coordinates": [1.805437, 47.901703]}, "record_timestamp": "2019-04-09T15:53:16.117+02:00"},{"datasetid": "arrets-tao-gtfs", "recordid": "88e0c0fc87cab3426ce3d553b560b11e16b89798", "fields": {"stop_coordinates": [47.922371, 1.8249710000000001], "stop_name": "Grosse Pierre", "parent_station": "StopArea:OLS35_Grosse_Pierre", "location_type": "0", "stop_id": "StopPoint:OLS01071701"}, "geometry": {"type": "Point", "coordinates": [1.8249710000000001, 47.922371]}, "record_timestamp": "2019-04-09T15:53:16.117+02:00"},{"datasetid": "arrets-tao-gtfs", "recordid": "9e577ab82c0cc6ef4251d20013b7f828017d1a35", "fields": {"stop_coordinates": [47.914223, 1.815188], "stop_name": "Selliers", "parent_station": "StopArea:OLS35_Selliers", "location_type": "0", "stop_id": "StopPoint:OLS00053600"}, "geometry": {"type": "Point", "coordinates": [1.815188, 47.914223]}, "record_timestamp": "2019-04-09T15:53:16.117+02:00"},{"datasetid": "arrets-tao-gtfs", "recordid": "0bdec41121f74307304c1a529fbd869ab79e27ba", "fields": {"stop_coordinates": [47.886017, 2.055086], "stop_name": "Place Jean Zay", "parent_station": "StopArea:OLS8_Place_Jean_Zay", "location_type": "0", "stop_id": "StopPoint:OLS00039102"}, "geometry": {"type": "Point", "coordinates": [2.055086, 47.886017]}, "record_timestamp": "2019-04-09T15:53:16.117+02:00"},{"datasetid": "arrets-tao-gtfs", "recordid": "abf746690cafcabf1fda8b3e1a6bfe6b7d0a48b4", "fields": {"stop_coordinates": [47.897243, 2.024239], "stop_name": "Jean Beaudoin", "parent_station": "StopArea:OLS65_Jean_Beaudoin", "location_type": "0", "stop_id": "StopPoint:OLS00021900"}, "geometry": {"type": "Point", "coordinates": [2.024239, 47.897243]}, "record_timestamp": "2019-04-09T15:53:16.117+02:00"},{"datasetid": "arrets-tao-gtfs", "recordid": "9176710b5bc46c84fe079d5baadf9324aff4ac74", "fields": {"stop_coordinates": [47.897941, 1.906148], "stop_name": "Les Halles", "parent_station": "StopArea:OLSL_Les_Halles", "location_type": "0", "stop_id": "StopPoint:OLS01078703"}, "geometry": {"type": "Point", "coordinates": [1.906148, 47.897941]}, "record_timestamp": "2019-04-09T15:53:16.117+02:00"},{"datasetid": "arrets-tao-gtfs", "recordid": "166aef292c44940c923b9548208dc4e073c1568a", "fields": {"stop_coordinates": [47.897923, 1.887652], "stop_name": "Quai Madeleine", "parent_station": "StopArea:OLSL_Quai_Madeleine", "location_type": "0", "stop_id": "StopPoint:OLS00041901"}, "geometry": {"type": "Point", "coordinates": [1.887652, 47.897923]}, "record_timestamp": "2019-04-09T15:53:16.117+02:00"},{"datasetid": "arrets-tao-gtfs", "recordid": "26b77a1d2e8a8b159e81327e6379a6c438ef907a", "fields": {"stop_coordinates": [47.901951, 1.860269], "stop_name": "Trois Fontaines", "parent_station": "StopArea:OLSB_Trois_Fontaines", "location_type": "0", "stop_id": "StopPoint:OLSTTFONT2"}, "geometry": {"type": "Point", "coordinates": [1.860269, 47.901951]}, "record_timestamp": "2019-04-09T15:53:16.117+02:00"},{"datasetid": "arrets-tao-gtfs", "recordid": "61ff568074547eb57c5067aeb4c8c31d565bb3b1", "fields": {"stop_coordinates": [47.911011, 1.976329], "stop_name": "Clos du Hameau", "parent_station": "StopArea:OLSB_Clos_du_Hameau", "location_type": "0", "stop_id": "StopPoint:OLSTHAMEA1"}, "geometry": {"type": "Point", "coordinates": [1.976329, 47.911011]}, "record_timestamp": "2019-04-09T15:53:16.117+02:00"},{"datasetid": "arrets-tao-gtfs", "recordid": "58065fd96f2fdecb7151e5cff7b19cddd6781e82", "fields": {"stop_coordinates": [47.911873, 1.915333], "stop_name": "Pont St-Vincent", "parent_station": "StopArea:OLS6_Pont_St-Vincent", "location_type": "0", "stop_id": "StopPoint:OLS01027004"}, "geometry": {"type": "Point", "coordinates": [1.915333, 47.911873]}, "record_timestamp": "2019-04-09T15:53:16.117+02:00"},{"datasetid": "arrets-tao-gtfs", "recordid": "582bb3148c415acd835816678f2c6500a3d9084e", "fields": {"stop_coordinates": [47.857269, 1.905087], "stop_name": "Victor Hugo", "parent_station": "StopArea:OLSA_Victor_Hugo", "location_type": "0", "stop_id": "StopPoint:OLSTVHUGO1"}, "geometry": {"type": "Point", "coordinates": [1.905087, 47.857269]}, "record_timestamp": "2019-04-09T15:53:16.117+02:00"},{"datasetid": "arrets-tao-gtfs", "recordid": "0e47b53536f5e84eaaed76c742c57d8fb2bdc80a", "fields": {"stop_coordinates": [47.9282, 1.925036], "stop_name": "Jules Verne", "parent_station": "StopArea:OLSA_Jules_Verne", "location_type": "0", "stop_id": "StopPoint:OLSTVERNE2"}, "geometry": {"type": "Point", "coordinates": [1.925036, 47.9282]}, "record_timestamp": "2019-04-09T15:53:16.117+02:00"},{"datasetid": "arrets-tao-gtfs", "recordid": "c7ba18fe79cebb772a4df118eb26c57321f37a03", "fields": {"stop_coordinates": [47.919582, 1.903384], "stop_name": "Lib\u00e9ration", "parent_station": "StopArea:OLSA_Liberation", "location_type": "0", "stop_id": "StopPoint:OLSTLIBER2"}, "geometry": {"type": "Point", "coordinates": [1.903384, 47.919582]}, "record_timestamp": "2019-04-09T15:53:16.117+02:00"},{"datasetid": "arrets-tao-gtfs", "recordid": "db5889d57139a2f2f7100c338781ad38848e9ff2", "fields": {"stop_coordinates": [47.894321, 1.9045429999999999], "stop_name": "Dauphine", "parent_station": "StopArea:OLSA_Dauphine", "location_type": "0", "stop_id": "StopPoint:OLSTTOURE2"}, "geometry": {"type": "Point", "coordinates": [1.9045429999999999, 47.894321]}, "record_timestamp": "2019-04-09T15:53:16.117+02:00"},{"datasetid": "arrets-tao-gtfs", "recordid": "ecf7ec85d31c14505ac80fb9b238074bb106dcb9", "fields": {"stop_coordinates": [47.887627, 1.8765900000000002], "stop_name": "Quatre Tourelles", "parent_station": "StopArea:OLS5_Quatre_Tourelles", "location_type": "0", "stop_id": "StopPoint:OLS00042000"}, "geometry": {"type": "Point", "coordinates": [1.8765900000000002, 47.887627]}, "record_timestamp": "2019-04-09T15:53:16.117+02:00"},{"datasetid": "arrets-tao-gtfs", "recordid": "7193b43ade2b66b0a68b04d0d1367baf9146c34f", "fields": {"stop_coordinates": [47.886753, 1.874654], "stop_name": "Les Moines", "parent_station": "StopArea:OLS5_Les_Moines", "location_type": "0", "stop_id": "StopPoint:OLS00044901"}, "geometry": {"type": "Point", "coordinates": [1.874654, 47.886753]}, "record_timestamp": "2019-04-09T15:53:16.117+02:00"},{"datasetid": "arrets-tao-gtfs", "recordid": "ff93cc44c992df726984fd4f78fb4cb7995df7e3", "fields": {"stop_coordinates": [47.89394, 1.890104], "stop_name": "Champ de Mars", "parent_station": "StopArea:OLS5_Champ_de_Mars", "location_type": "0", "stop_id": "StopPoint:OLS01024802"}, "geometry": {"type": "Point", "coordinates": [1.890104, 47.89394]}, "record_timestamp": "2019-04-09T15:53:16.117+02:00"},{"datasetid": "arrets-tao-gtfs", "recordid": "bccd45bce8ceab19f4aa9c6891f0bd7ce95eb27e", "fields": {"stop_coordinates": [47.928829, 1.9203000000000001], "stop_name": "Lamballe", "parent_station": "StopArea:OLS6_Lamballe", "location_type": "0", "stop_id": "StopPoint:OLS00026121"}, "geometry": {"type": "Point", "coordinates": [1.9203000000000001, 47.928829]}, "record_timestamp": "2019-04-09T15:53:16.117+02:00"},{"datasetid": "arrets-tao-gtfs", "recordid": "8473b1bc0105f7ddc2088f9002ef68ff8f2f6997", "fields": {"stop_coordinates": [47.933956, 1.917662], "stop_name": "Oradour", "parent_station": "StopArea:OLS6_Oradour", "location_type": "0", "stop_id": "StopPoint:OLS00035301"}, "geometry": {"type": "Point", "coordinates": [1.917662, 47.933956]}, "record_timestamp": "2019-04-09T15:53:16.117+02:00"},{"datasetid": "arrets-tao-gtfs", "recordid": "72a5eb066fa735889aa3e1b75da4208a9c84c01d", "fields": {"stop_coordinates": [47.955006, 1.878525], "stop_name": "Narcisses", "parent_station": "StopArea:OLS6_Narcisses", "location_type": "0", "stop_id": "StopPoint:OLS00035151"}, "geometry": {"type": "Point", "coordinates": [1.878525, 47.955006]}, "record_timestamp": "2019-04-09T15:53:16.117+02:00"},{"datasetid": "arrets-tao-gtfs", "recordid": "871c5e6cd791a4e0498fb4ea909069081b7628ff", "fields": {"stop_coordinates": [47.92112, 1.925087], "stop_name": "Parc de l'Etuv\u00e9e", "parent_station": "StopArea:OLS4_Parc_de_l_Etuvee", "location_type": "0", "stop_id": "StopPoint:OLS01069102"}, "geometry": {"type": "Point", "coordinates": [1.925087, 47.92112]}, "record_timestamp": "2019-04-09T15:53:16.117+02:00"},{"datasetid": "arrets-tao-gtfs", "recordid": "e1e06ae055a86b1a013808dc080dbfdd6c06a119", "fields": {"stop_coordinates": [47.93309, 1.94794], "stop_name": "Champ Luneau", "parent_station": "StopArea:OLS37_Champ_Luneau", "location_type": "0", "stop_id": "StopPoint:OLS00006120"}, "geometry": {"type": "Point", "coordinates": [1.94794, 47.93309]}, "record_timestamp": "2019-04-09T15:53:16.117+02:00"},{"datasetid": "arrets-tao-gtfs", "recordid": "132a6fc3c3e59ccd62a1e060f73f5e8fe6a7bd31", "fields": {"stop_coordinates": [47.914528, 1.971022], "stop_name": "Jean Mermoz", "parent_station": "StopArea:OLS37_Jean_Mermoz", "location_type": "0", "stop_id": "StopPoint:OLS00022222"}, "geometry": {"type": "Point", "coordinates": [1.971022, 47.914528]}, "record_timestamp": "2019-04-09T15:53:16.117+02:00"},{"datasetid": "arrets-tao-gtfs", "recordid": "ac04362e7dc4424be6d0f1d9945a9947c09de406", "fields": {"stop_coordinates": [47.928589, 2.029403], "stop_name": "Les \u00c9poisses", "parent_station": "StopArea:OLS62_Les_poisses", "location_type": "0", "stop_id": "StopPoint:OLSAF004210"}, "geometry": {"type": "Point", "coordinates": [2.029403, 47.928589]}, "record_timestamp": "2019-04-09T15:53:16.117+02:00"},{"datasetid": "arrets-tao-gtfs", "recordid": "fc66dfa8959810e4f02293218279b9ffd864920b", "fields": {"stop_coordinates": [47.81258, 1.92476], "stop_name": "Petite M\u00e9rie", "parent_station": "StopArea:OLS61_Petite_Merie", "location_type": "0", "stop_id": "StopPoint:OLS00035911"}, "geometry": {"type": "Point", "coordinates": [1.92476, 47.81258]}, "record_timestamp": "2019-04-09T15:53:16.117+02:00"},{"datasetid": "arrets-tao-gtfs", "recordid": "caaef4e410c7cb7b00415661ce593ba4b7589ebd", "fields": {"stop_coordinates": [47.809059, 1.94205], "stop_name": "Rue de Cormes", "parent_station": "StopArea:OLS61_Rue_de_Cormes", "location_type": "0", "stop_id": "StopPoint:OLSAF002290"}, "geometry": {"type": "Point", "coordinates": [1.94205, 47.809059]}, "record_timestamp": "2019-04-09T15:53:16.117+02:00"},{"datasetid": "arrets-tao-gtfs", "recordid": "e50dd8923e3677eda15f49282380b78d8c625e98", "fields": {"stop_coordinates": [47.903242, 1.916182], "stop_name": "Aristide Briand", "location_type": "1", "stop_id": "StopArea:OLS25_Aristide_Briand"}, "geometry": {"type": "Point", "coordinates": [1.916182, 47.903242]}, "record_timestamp": "2019-04-09T15:53:16.117+02:00"},{"datasetid": "arrets-tao-gtfs", "recordid": "043363d145ae25b6f4866b4aec41ce2e16fa4d93", "fields": {"stop_coordinates": [47.898993, 1.876291], "stop_name": "Pont de L'Europe", "location_type": "1", "stop_id": "StopArea:OLS25_Pont_de_L_Europe"}, "geometry": {"type": "Point", "coordinates": [1.876291, 47.898993]}, "record_timestamp": "2019-04-09T15:53:16.117+02:00"},{"datasetid": "arrets-tao-gtfs", "recordid": "502750c7623a5b7989f6282063c5ad2f6ef4d20a", "fields": {"stop_coordinates": [47.818062, 1.958661], "stop_name": "Les Gen\u00eats", "location_type": "1", "stop_id": "StopArea:OLS26_Les_Genets"}, "geometry": {"type": "Point", "coordinates": [1.958661, 47.818062]}, "record_timestamp": "2019-04-09T15:53:16.117+02:00"},{"datasetid": "arrets-tao-gtfs", "recordid": "3c2e52bf26f4139df2f10b24ccb6a505c0e8bd24", "fields": {"stop_coordinates": [47.819187, 1.948289], "stop_name": "St-Cyr-Gare", "location_type": "1", "stop_id": "StopArea:OLS26_St-Cyr-Gare"}, "geometry": {"type": "Point", "coordinates": [1.948289, 47.819187]}, "record_timestamp": "2019-04-09T15:53:16.117+02:00"},{"datasetid": "arrets-tao-gtfs", "recordid": "bb0fcc7bf73051f5ef1d1a8cabb7a8d310129ce2", "fields": {"stop_coordinates": [47.838416, 1.93031], "stop_name": "Senghor", "location_type": "1", "stop_id": "StopArea:OLS13_Senghor"}, "geometry": {"type": "Point", "coordinates": [1.93031, 47.838416]}, "record_timestamp": "2019-04-09T15:53:16.117+02:00"},{"datasetid": "arrets-tao-gtfs", "recordid": "cb4bbd401d2571c2bf05a88bdff4e407a3521de1", "fields": {"stop_coordinates": [47.841124, 1.9226869999999998], "stop_name": "Alsace", "location_type": "1", "stop_id": "StopArea:OLS26_Alsace"}, "geometry": {"type": "Point", "coordinates": [1.9226869999999998, 47.841124]}, "record_timestamp": "2019-04-09T15:53:16.117+02:00"},{"datasetid": "arrets-tao-gtfs", "recordid": "33960744d9b5f27840cfda757a27349242e83162", "fields": {"stop_coordinates": [47.840515, 1.906356], "stop_name": "Jarry", "location_type": "1", "stop_id": "StopArea:OLS23_Jarry"}, "geometry": {"type": "Point", "coordinates": [1.906356, 47.840515]}, "record_timestamp": "2019-04-09T15:53:16.117+02:00"},{"datasetid": "arrets-tao-gtfs", "recordid": "4f2b34627f0bb001d9663be9eead4e2964482283", "fields": {"stop_coordinates": [47.926751, 1.9078089999999999], "stop_name": "Gare des Aubrais", "location_type": "1", "stop_id": "StopArea:OLS11_Gare_des_Aubrais"}, "geometry": {"type": "Point", "coordinates": [1.9078089999999999, 47.926751]}, "record_timestamp": "2019-04-09T15:53:16.117+02:00"},{"datasetid": "arrets-tao-gtfs", "recordid": "f642528bca090613870582eae25cc433d9af9527", "fields": {"stop_coordinates": [47.940218, 1.919536], "stop_name": "Pablo Neruda", "location_type": "1", "stop_id": "StopArea:OLS21_Pablo_Neruda"}, "geometry": {"type": "Point", "coordinates": [1.919536, 47.940218]}, "record_timestamp": "2019-04-09T15:53:16.117+02:00"},{"datasetid": "arrets-tao-gtfs", "recordid": "f961f37ee1f6aba98a6db5c6464ba2569ff3ceea", "fields": {"stop_coordinates": [47.884697, 1.924415], "stop_name": "Gaston Galloux", "location_type": "1", "stop_id": "StopArea:OLS22_Gaston_Galloux"}, "geometry": {"type": "Point", "coordinates": [1.924415, 47.884697]}, "record_timestamp": "2019-04-09T15:53:16.117+02:00"},{"datasetid": "arrets-tao-gtfs", "recordid": "61889a9e068b348ee012502210156864b7b25554", "fields": {"stop_coordinates": [47.931568, 1.910698], "stop_name": "Gabriel P\u00e9ri", "location_type": "1", "stop_id": "StopArea:OLS33_Gabriel_Peri"}, "geometry": {"type": "Point", "coordinates": [1.910698, 47.931568]}, "record_timestamp": "2019-04-09T15:53:16.117+02:00"},{"datasetid": "arrets-tao-gtfs", "recordid": "be99153befc5a4c08ad22c88f097d525a1f62fd9", "fields": {"stop_coordinates": [47.916329, 2.04073], "stop_name": "Neuville", "location_type": "1", "stop_id": "StopArea:OLS34_Neuville"}, "geometry": {"type": "Point", "coordinates": [2.04073, 47.916329]}, "record_timestamp": "2019-04-09T15:53:16.117+02:00"},{"datasetid": "arrets-tao-gtfs", "recordid": "b39f1cab2191a5ecd8a7d8c019d689a9685a034e", "fields": {"stop_coordinates": [47.948803, 1.830759], "stop_name": "Gidy", "location_type": "1", "stop_id": "StopArea:OLS3_Gidy"}, "geometry": {"type": "Point", "coordinates": [1.830759, 47.948803]}, "record_timestamp": "2019-04-09T15:53:16.117+02:00"},{"datasetid": "arrets-tao-gtfs", "recordid": "a1d753e98a3dcf6179b074d6ea2a90962671226a", "fields": {"stop_coordinates": [47.91812, 1.859821], "stop_name": "Petit St-Jean", "location_type": "1", "stop_id": "StopArea:OLS3_Petit_St-Jean"}, "geometry": {"type": "Point", "coordinates": [1.859821, 47.91812]}, "record_timestamp": "2019-04-09T15:53:16.117+02:00"},{"datasetid": "arrets-tao-gtfs", "recordid": "971dc54381762fb73ef44ef7e22e6feada19fc6e", "fields": {"stop_coordinates": [47.906487, 1.906507], "stop_name": "Gare d'Orl\u00e9ans L", "location_type": "1", "stop_id": "StopArea:OLS2_Gare_d_Orleans_L"}, "geometry": {"type": "Point", "coordinates": [1.906507, 47.906487]}, "record_timestamp": "2019-04-09T15:53:16.117+02:00"},{"datasetid": "arrets-tao-gtfs", "recordid": "bab4361293b2867c9763857aca2371d7d9a85c07", "fields": {"stop_coordinates": [47.818629, 1.937787], "stop_name": "Chateaubriand", "location_type": "1", "stop_id": "StopArea:OLS28_Chateaubriand"}, "geometry": {"type": "Point", "coordinates": [1.937787, 47.818629]}, "record_timestamp": "2019-04-09T15:53:16.117+02:00"},{"datasetid": "arrets-tao-gtfs", "recordid": "fa39cc003b72820714b9c033561255f16fea7411", "fields": {"stop_coordinates": [47.815432, 1.9296900000000001], "stop_name": "Balzac", "location_type": "1", "stop_id": "StopArea:OLS28_Balzac"}, "geometry": {"type": "Point", "coordinates": [1.9296900000000001, 47.815432]}, "record_timestamp": "2019-04-09T15:53:16.117+02:00"},{"datasetid": "arrets-tao-gtfs", "recordid": "f05eb191fe003675bf388f9c26d27e250d2ae48f", "fields": {"stop_coordinates": [47.823313, 1.932465], "stop_name": "Concyr", "location_type": "1", "stop_id": "StopArea:OLS28_Concyr"}, "geometry": {"type": "Point", "coordinates": [1.932465, 47.823313]}, "record_timestamp": "2019-04-09T15:53:16.117+02:00"},{"datasetid": "arrets-tao-gtfs", "recordid": "942e66b5c87ee172ee5051e745e078390ce14980", "fields": {"stop_coordinates": [47.82856, 1.927987], "stop_name": "Georges Sand", "location_type": "1", "stop_id": "StopArea:OLS28_Georges_Sand"}, "geometry": {"type": "Point", "coordinates": [1.927987, 47.82856]}, "record_timestamp": "2019-04-09T15:53:16.117+02:00"},{"datasetid": "arrets-tao-gtfs", "recordid": "f4261bd4de2ee322b153af8a34b658d3cfca68fa", "fields": {"stop_coordinates": [47.835373, 1.9598559999999998], "stop_name": "Le Benay", "location_type": "1", "stop_id": "StopArea:OLS13_Le_Benay"}, "geometry": {"type": "Point", "coordinates": [1.9598559999999998, 47.835373]}, "record_timestamp": "2019-04-09T15:53:16.117+02:00"},{"datasetid": "arrets-tao-gtfs", "recordid": "51810e17389e2877cfc0a93e572ec88525036d27", "fields": {"stop_coordinates": [47.827377, 1.972843], "stop_name": "Ren\u00e9 Godin", "location_type": "1", "stop_id": "StopArea:OLS13_Rene_Godin"}, "geometry": {"type": "Point", "coordinates": [1.972843, 47.827377]}, "record_timestamp": "2019-04-09T15:53:16.117+02:00"},{"datasetid": "arrets-tao-gtfs", "recordid": "cba788f0685669debb38b0caa7b539d041643e24", "fields": {"stop_coordinates": [47.825703, 1.975612], "stop_name": "L'Or\u00e9e du Bois", "location_type": "1", "stop_id": "StopArea:OLS13_L_Oree_du_Bois"}, "geometry": {"type": "Point", "coordinates": [1.975612, 47.825703]}, "record_timestamp": "2019-04-09T15:53:16.117+02:00"},{"datasetid": "arrets-tao-gtfs", "recordid": "5980d76aebfe1db4303c8b10679e5be048b953b8", "fields": {"stop_coordinates": [47.913758, 1.954947], "stop_name": "Motte Luquet", "location_type": "1", "stop_id": "StopArea:OLS12_Motte_Luquet"}, "geometry": {"type": "Point", "coordinates": [1.954947, 47.913758]}, "record_timestamp": "2019-04-09T15:53:16.117+02:00"},{"datasetid": "arrets-tao-gtfs", "recordid": "6f457d476c1f4c25da9c1ca3e0f5afe1f4aa6d4f", "fields": {"stop_coordinates": [47.916981, 1.9631600000000002], "stop_name": "Charbonni\u00e8re", "location_type": "1", "stop_id": "StopArea:OLS12_Charbonniere"}, "geometry": {"type": "Point", "coordinates": [1.9631600000000002, 47.916981]}, "record_timestamp": "2019-04-09T15:53:16.117+02:00"},{"datasetid": "arrets-tao-gtfs", "recordid": "198b54291586e3672c56d4da27a0a47b3bb04a0d", "fields": {"stop_coordinates": [47.915122, 1.9639900000000001], "stop_name": "Coin Buffet", "location_type": "1", "stop_id": "StopArea:OLS12_Coin_Buffet"}, "geometry": {"type": "Point", "coordinates": [1.9639900000000001, 47.915122]}, "record_timestamp": "2019-04-09T15:53:16.117+02:00"},{"datasetid": "arrets-tao-gtfs", "recordid": "2aa604d3b1a1f0f5f7febcf087a6d8a23656c7d7", "fields": {"stop_coordinates": [47.832451, 1.9206159999999999], "stop_name": "H\u00f4pital-Accueil", "location_type": "1", "stop_id": "StopArea:OLS1_Hopital-Accueil"}, "geometry": {"type": "Point", "coordinates": [1.9206159999999999, 47.832451]}, "record_timestamp": "2019-04-09T15:53:16.117+02:00"},{"datasetid": "arrets-tao-gtfs", "recordid": "0b260ac5d4f3a8bb4d30f84b006c727a27c4bf24", "fields": {"stop_coordinates": [47.843895, 1.924253], "stop_name": "IUT", "location_type": "1", "stop_id": "StopArea:OLS1_IUT"}, "geometry": {"type": "Point", "coordinates": [1.924253, 47.843895]}, "record_timestamp": "2019-04-09T15:53:16.117+02:00"},{"datasetid": "arrets-tao-gtfs", "recordid": "82d00541e062b48f0f00feddaa73a98533ea442d", "fields": {"stop_coordinates": [47.849788, 1.930437], "stop_name": "Ch\u00e2teauroux", "location_type": "1", "stop_id": "StopArea:OLS1_Chateauroux"}, "geometry": {"type": "Point", "coordinates": [1.930437, 47.849788]}, "record_timestamp": "2019-04-09T15:53:16.117+02:00"},{"datasetid": "arrets-tao-gtfs", "recordid": "5b9ad893f8a8e65ace7ea4e03beb486ec12e7592", "fields": {"stop_coordinates": [47.935288, 1.873802], "stop_name": "Orme Au Coin", "location_type": "1", "stop_id": "StopArea:OLS19_Orme_Au_Coin"}, "geometry": {"type": "Point", "coordinates": [1.873802, 47.935288]}, "record_timestamp": "2019-04-09T15:53:16.117+02:00"},{"datasetid": "arrets-tao-gtfs", "recordid": "5597e5abe536334a044ba819f9745f8e64438dca", "fields": {"stop_coordinates": [47.949413, 1.885297], "stop_name": "Piscine Saran", "location_type": "1", "stop_id": "StopArea:OLS1_Piscine_Saran"}, "geometry": {"type": "Point", "coordinates": [1.885297, 47.949413]}, "record_timestamp": "2019-04-09T15:53:16.117+02:00"},{"datasetid": "arrets-tao-gtfs", "recordid": "3c625b0c379d039460d790d76d7ba62b896e72a5", "fields": {"stop_coordinates": [47.943917, 1.835602], "stop_name": "Monbary", "location_type": "1", "stop_id": "StopArea:OLS11_Monbary"}, "geometry": {"type": "Point", "coordinates": [1.835602, 47.943917]}, "record_timestamp": "2019-04-09T15:53:16.117+02:00"},{"datasetid": "arrets-tao-gtfs", "recordid": "ef967233edb795dc59ca159675cb780c65d91926", "fields": {"stop_coordinates": [47.948902, 1.902651], "stop_name": "Anne Frank", "location_type": "1", "stop_id": "StopArea:OLS19_Anne_Frank"}, "geometry": {"type": "Point", "coordinates": [1.902651, 47.948902]}, "record_timestamp": "2019-04-09T15:53:16.117+02:00"},{"datasetid": "arrets-tao-gtfs", "recordid": "e943db785bda17c42ab34f9260f07b23219e95d9", "fields": {"stop_coordinates": [47.885256, 1.8250609999999998], "stop_name": "Claude Lerude", "location_type": "1", "stop_id": "StopArea:OLS2_Claude_Lerude"}, "geometry": {"type": "Point", "coordinates": [1.8250609999999998, 47.885256]}, "record_timestamp": "2019-04-09T15:53:16.117+02:00"},{"datasetid": "arrets-tao-gtfs", "recordid": "3c119399263d659457a97696c6e69ade90c6d40f", "fields": {"stop_coordinates": [47.893225, 1.848224], "stop_name": "Pervenches", "location_type": "1", "stop_id": "StopArea:OLS2_Pervenches"}, "geometry": {"type": "Point", "coordinates": [1.848224, 47.893225]}, "record_timestamp": "2019-04-09T15:53:16.117+02:00"},{"datasetid": "arrets-tao-gtfs", "recordid": "0aed33f4425c35dee5aca5878059fe094cd5d536", "fields": {"stop_coordinates": [47.962364, 1.886204], "stop_name": "Cap Saran", "location_type": "1", "stop_id": "StopArea:OLS18_Cap_Saran"}, "geometry": {"type": "Point", "coordinates": [1.886204, 47.962364]}, "record_timestamp": "2019-04-09T15:53:16.117+02:00"},{"datasetid": "arrets-tao-gtfs", "recordid": "a6757df5d45f12d570173f693c14746d95c3e72d", "fields": {"stop_coordinates": [47.882103, 1.870409], "stop_name": "St-Pryv\u00e9-Mairie", "location_type": "1", "stop_id": "StopArea:OLS16_St-Pryve-Mairie"}, "geometry": {"type": "Point", "coordinates": [1.870409, 47.882103]}, "record_timestamp": "2019-04-09T15:53:16.117+02:00"},{"datasetid": "arrets-tao-gtfs", "recordid": "9b7cf56a3d168bf069d44357facc683e2a95bed5", "fields": {"stop_coordinates": [47.882111, 1.951638], "stop_name": "Chalet", "location_type": "1", "stop_id": "StopArea:OLS16_Chalet"}, "geometry": {"type": "Point", "coordinates": [1.951638, 47.882111]}, "record_timestamp": "2019-04-09T15:53:16.117+02:00"},{"datasetid": "arrets-tao-gtfs", "recordid": "6f8310d3b5e40cafd46509c72e67593e037b836e", "fields": {"stop_coordinates": [47.920208, 1.832222], "stop_name": "M. Genevoix B", "location_type": "1", "stop_id": "StopArea:OLS17_M__Genevoix_B"}, "geometry": {"type": "Point", "coordinates": [1.832222, 47.920208]}, "record_timestamp": "2019-04-09T15:53:16.117+02:00"},{"datasetid": "arrets-tao-gtfs", "recordid": "5363311d9f54cc69dd218c396aa6778900e1c82e", "fields": {"stop_coordinates": [47.889792, 1.829051], "stop_name": "Alphonse Daudet", "location_type": "1", "stop_id": "StopArea:OLS35_Alphonse_Daudet"}, "geometry": {"type": "Point", "coordinates": [1.829051, 47.889792]}, "record_timestamp": "2019-04-09T15:53:16.117+02:00"},{"datasetid": "arrets-tao-gtfs", "recordid": "d64c28a5ca4c6fa947e1514f6fa8c46f3e31a72d", "fields": {"stop_coordinates": [47.900856, 1.930682], "stop_name": "Chemin de Halage", "location_type": "1", "stop_id": "StopArea:OLSL_Chemin_de_Halage"}, "geometry": {"type": "Point", "coordinates": [1.930682, 47.900856]}, "record_timestamp": "2019-04-09T15:53:16.117+02:00"},{"datasetid": "arrets-tao-gtfs", "recordid": "a791de69f6b40e679657c0e760f8e56655f192f2", "fields": {"stop_coordinates": [47.898022, 1.898609], "stop_name": "Quai Barentin", "location_type": "1", "stop_id": "StopArea:OLSL_Quai_Barentin"}, "geometry": {"type": "Point", "coordinates": [1.898609, 47.898022]}, "record_timestamp": "2019-04-09T15:53:16.117+02:00"},{"datasetid": "arrets-tao-gtfs", "recordid": "9ea3556e86949977d78aa7d276d7043e6e9e6181", "fields": {"stop_coordinates": [47.936289, 1.948259], "stop_name": "Hautes Bordes", "location_type": "1", "stop_id": "StopArea:OLS37_Hautes_Bordes"}, "geometry": {"type": "Point", "coordinates": [1.948259, 47.936289]}, "record_timestamp": "2019-04-09T15:53:16.117+02:00"},{"datasetid": "arrets-tao-gtfs", "recordid": "956ea9676b779f64ada2fea191896f7291f40ef3", "fields": {"stop_coordinates": [47.846857, 1.931801], "stop_name": "Universit\u00e9", "location_type": "1", "stop_id": "StopArea:OLSA_Universite"}, "geometry": {"type": "Point", "coordinates": [1.931801, 47.846857]}, "record_timestamp": "2019-04-09T15:53:16.117+02:00"},{"datasetid": "arrets-tao-gtfs", "recordid": "85e1165e7d0496f07151534cab47d8241e8982ec", "fields": {"stop_coordinates": [47.877819, 1.9639769999999999], "stop_name": "Brulas", "location_type": "1", "stop_id": "StopArea:OLS5_Brulas"}, "geometry": {"type": "Point", "coordinates": [1.9639769999999999, 47.877819]}, "record_timestamp": "2019-04-09T15:53:16.117+02:00"},{"datasetid": "arrets-tao-gtfs", "recordid": "fcfe700ecd8a8ca3f7f6934845041865522569d6", "fields": {"stop_coordinates": [47.87752, 1.96046], "stop_name": "Croix Billard", "location_type": "1", "stop_id": "StopArea:OLS5_Croix_Billard"}, "geometry": {"type": "Point", "coordinates": [1.96046, 47.87752]}, "record_timestamp": "2019-04-09T15:53:16.117+02:00"},{"datasetid": "arrets-tao-gtfs", "recordid": "4797e9f6262b2c7189bc043a5bcb6cdb97b3f300", "fields": {"stop_coordinates": [47.949524, 1.885805], "stop_name": "Piscine Saran", "location_type": "1", "stop_id": "StopArea:OLS6_Piscine_Saran"}, "geometry": {"type": "Point", "coordinates": [1.885805, 47.949524]}, "record_timestamp": "2019-04-09T15:53:16.117+02:00"},{"datasetid": "arrets-tao-gtfs", "recordid": "421691f9e83d2203e852b3f25a096e5eba74677b", "fields": {"stop_coordinates": [47.94974, 1.883642], "stop_name": "Jean Bouin", "location_type": "1", "stop_id": "StopArea:OLS6_Jean_Bouin"}, "geometry": {"type": "Point", "coordinates": [1.883642, 47.94974]}, "record_timestamp": "2019-04-09T15:53:16.117+02:00"},{"datasetid": "arrets-tao-gtfs", "recordid": "3d0e4f66de5c34543a61c56c807d22e4c3a73048", "fields": {"stop_coordinates": [47.918431, 1.8754089999999999], "stop_name": "Max Jacob", "location_type": "1", "stop_id": "StopArea:OLS4_Max_Jacob"}, "geometry": {"type": "Point", "coordinates": [1.8754089999999999, 47.918431]}, "record_timestamp": "2019-04-09T15:53:16.117+02:00"},{"datasetid": "arrets-tao-gtfs", "recordid": "6778d0f99c268ab0c53979aa0efb45ebbe680d7a", "fields": {"stop_coordinates": [47.92068, 1.876676], "stop_name": "Diamants", "location_type": "1", "stop_id": "StopArea:OLS4_Diamants"}, "geometry": {"type": "Point", "coordinates": [1.876676, 47.92068]}, "record_timestamp": "2019-04-09T15:53:16.117+02:00"},